Time----------,Event----------,Altitude----------,Velocity----------,Acceleration----------,Latitude----------,Longitude----------,GyroX----------,GyroY----------,GyroZ----------,Pitch Rate----------,Roll Rate----------,Yaw Rate----------,MagX----------,MagY----------,MagZ----------
-00:00:01:011,,-423.268,0,91170.5,43.7957,-120.652,N 43° 47.7448',W 120° 39.0927',65525,11,65532,65525,11,65532,0,4.49103e+269,2.99201e-312
-00:00:02:017,,-422.958,0.309719,91179.7,43.7957,-120.652,N 43° 47.7449',W 120° 39.0927',65467,14,65530,-58,3,-2,0,4.49103e+269,2.99201e-312
-00:00:03:030,,-423.887,-0.929149,112303,43.7957,-120.652,N 43° 47.7449',W 120° 39.0928',65520,14,65532,53,0,2,0,4.49103e+269,2.99201e-312
-00:00:04:043,,-423.268,0.61943,91187.6,43.7957,-120.652,N 43° 47.7449',W 120° 39.0928',65532,15,65532,12,1,0,0,4.49103e+269,2.99201e-312
-00:00:05:056,,-422.029,1.23889,91192.6,43.7957,-120.652,N 43° 47.7449',W 120° 39.0929',72,9,65532,-65460,-6,0,0,4.49103e+269,2.99201e-312
-00:00:06:069,,-422.958,-0.929175,91166,43.7957,-120.652,N 43° 47.7449',W 120° 39.093',13,18,65532,-59,9,0,0,4.49103e+269,2.99201e-312
-00:00:07:082,,-423.268,-0.309719,91177.6,43.7957,-120.652,N 43° 47.7449',W 120° 39.093',65498,14,65531,65485,-4,-1,0,4.49103e+269,2.99201e-312
-00:00:08:095,,-422.029,1.23889,91179,43.7957,-120.652,N 43° 47.7449',W 120° 39.0931',65482,8,65529,-16,-6,-2,0,4.49103e+269,2.99201e-312
-00:00:09:108,,-422.958,-0.929175,91192.8,43.7957,-120.652,N 43° 47.745',W 120° 39.0932',13,13,65531,-65469,5,2,0,4.49103e+269,2.99201e-312
-00:00:10:121,,-422.958,0,91174.7,43.7957,-120.652,N 43° 47.745',W 120° 39.0933',23,13,65529,10,0,-2,0,4.49103e+269,2.99201e-312
-00:00:11:135,,-422.339,0.619447,91184.6,43.7957,-120.652,N 43° 47.745',W 120° 39.0934',65483,15,65529,65460,2,0,0,4.49103e+269,2.99201e-312
-00:00:12:148,,-423.577,-1.23888,91197.7,43.7957,-120.652,N 43° 47.745',W 120° 39.0934',65493,16,65535,10,1,6,0,4.49103e+269,2.99201e-312
-00:00:13:161,,-424.816,-1.23884,91202.7,43.7957,-120.652,N 43° 47.745',W 120° 39.0935',22,12,65533,-65471,-4,-2,0,4.49103e+269,2.99201e-312
-00:00:14:174,,-423.577,1.23884,91181.1,43.7957,-120.652,N 43° 47.745',W 120° 39.0935',7,12,65530,-15,0,-3,0,4.49103e+269,2.99201e-312
-00:00:15:187,,-418.312,5.26557,39361.5,43.7957,-120.652,N 43° 47.745',W 120° 39.0935',65221,65362,65325,65214,65350,-205,0,4.49103e+269,2.99201e-312
-00:00:16:200,Launch,-204.506,213.806,76008.6,43.7958,-120.651,N 43° 47.7456',W 120° 39.0899',63971,65502,73,-1250,140,-65252,0,4.49103e+269,2.99201e-312
00:00:01:013,,258.895,463.401,75451.4,43.7958,-120.651,N 43° 47.7496',W 120° 39.0887',59414,154,65,-4557,-65348,-8,0,4.49103e+269,2.99201e-312
00:00:02:026,,1005.87,746.973,77178.9,43.7959,-120.651,N 43° 47.7569',W 120° 39.0871',59551,65489,66,137,65335,1,0,4.49103e+269,2.99201e-312
00:00:03:039,,1944.5,938.636,80666.5,GPS ERROR,GPS ERROR,N 43° 47.7569',W 120° 39.0871',63943,100,69,4392,-65389,3,0,4.49103e+269,2.99201e-312
00:00:04:052,,2700.09,755.584,86280.1,GPS ERROR,GPS ERROR,N 43° 47.7569',W 120° 39.0871',64911,65310,30,968,65210,-39,0,4.49103e+269,2.99201e-312
00:00:05:065,,3557.89,857.802,111782,GPS ERROR,GPS ERROR,N 43° 47.7569',W 120° 39.0871',214,65467,34,-64697,157,4,0,4.49103e+269,2.99201e-312
00:00:06:078,,4687.11,1129.22,91962.3,GPS ERROR,GPS ERROR,N 43° 47.7569',W 120° 39.0871',67,65523,7,-147,56,-27,0,4.49103e+269,2.99201e-312
00:00:07:091,,6003.12,1316.01,92102.1,GPS ERROR,GPS ERROR,N 43° 47.7569',W 120° 39.0871',65150,30,52,65083,-65493,45,0,4.49103e+269,2.99201e-312
00:00:08:104,,7417.27,1414.15,64750.9,GPS ERROR,GPS ERROR,N 43° 47.7569',W 120° 39.0871',64947,3,4,-203,-27,-48,0,4.49103e+269,2.99201e-312
00:00:09:117,,8894.57,1477.3,64655.7,GPS ERROR,GPS ERROR,N 43° 47.7569',W 120° 39.0871',64518,108,25,-429,105,21,0,4.49103e+269,2.99201e-312
00:00:10:130,,10350.6,1456.06,64864.6,GPS ERROR,GPS ERROR,N 43° 47.7569',W 120° 39.0871',64027,62,29,-491,-46,4,0,4.49103e+269,2.99201e-312
00:00:11:153,,11820.1,1469.44,92375.5,GPS ERROR,GPS ERROR,N 43° 47.7569',W 120° 39.0871',63556,86,65511,-471,24,65482,0,4.49103e+269,2.99201e-312
00:00:12:157,,13273.5,1453.39,92374.6,GPS ERROR,GPS ERROR,N 43° 47.7569',W 120° 39.0871',62724,91,65510,-832,5,-1,0,4.49103e+269,2.99201e-312
00:00:13:170,,14721.6,1448.11,92373,GPS ERROR,GPS ERROR,N 43° 47.7569',W 120° 39.0871',62006,131,5,-718,40,-65505,0,4.49103e+269,2.99201e-312
00:00:14:183,,16126.5,1404.95,92440.8,GPS ERROR,GPS ERROR,N 43° 47.7569',W 120° 39.0871',61147,147,65497,-859,16,65492,0,4.49103e+269,2.99201e-312
00:00:15:196,,17441.5,1315.03,92456.9,GPS ERROR,GPS ERROR,N 43° 47.7569',W 120° 39.0871',60750,135,65514,-397,-12,17,0,4.49103e+269,2.99201e-312
00:00:16:210,,18690,1248.43,92414.6,GPS ERROR,GPS ERROR,N 43° 47.7569',W 120° 39.0871',60710,164,14,-40,29,-65500,0,4.49103e+269,2.99201e-312
00:00:17:222,,19757.8,1067.8,92397.8,43.7922,-120.654,N 43° 47.5323',W 120° 39.2191',60526,256,7,-184,92,-7,0,4.49103e+269,2.99201e-312
00:00:18:236,,20750.7,992.967,65152.7,GPS ERROR,GPS ERROR,N 43° 47.5323',W 120° 39.2191',60016,312,46,-510,56,39,0,4.49103e+269,2.99201e-312
00:00:19:248,,21857.7,1106.96,65156.9,GPS ERROR,GPS ERROR,N 43° 47.5323',W 120° 39.2191',59423,447,109,-593,135,63,0,4.49103e+269,2.99201e-312
00:00:20:261,,22837.9,980.17,65116.8,GPS ERROR,GPS ERROR,N 43° 47.5323',W 120° 39.2191',59552,565,320,129,118,211,0,4.49103e+269,2.99201e-312
00:00:21:274,,23744.3,906.406,91939.9,43.7916,-120.654,N 43° 47.4989',W 120° 39.2314',59017,772,577,-535,207,257,0,4.49103e+269,2.99201e-312
00:00:22:287,,24610.4,866.141,92395.4,GPS ERROR,GPS ERROR,N 43° 47.4989',W 120° 39.2314',59116,915,65355,99,143,64778,0,4.49103e+269,2.99201e-312
00:00:23:301,,25498.4,887.928,92385.7,GPS ERROR,GPS ERROR,N 43° 47.4989',W 120° 39.2314',58057,349,826,-1059,-566,-64529,0,4.49103e+269,2.99201e-312
00:00:24:314,,26475,976.608,64679.7,GPS ERROR,GPS ERROR,N 43° 47.4989',W 120° 39.2314',51214,65047,65111,-6843,64698,64285,0,4.49103e+269,2.99201e-312
00:00:25:327,,27206.8,731.818,64775.2,43.7913,-120.654,N 43° 47.4802',W 120° 39.238',53700,370,65389,2486,-64677,278,0,4.49103e+269,2.99201e-312
00:00:26:340,,27836.4,629.569,65051.9,GPS ERROR,GPS ERROR,N 43° 47.4802',W 120° 39.238',55770,273,65508,2070,-97,119,0,4.49103e+269,2.99201e-312
00:00:27:352,,28451.7,615.329,65254.7,GPS ERROR,GPS ERROR,N 43° 47.4802',W 120° 39.238',57692,70,65296,1922,-203,-212,0,4.49103e+269,2.99201e-312
00:00:28:366,,29006.2,554.523,65359.4,GPS ERROR,GPS ERROR,N 43° 47.4802',W 120° 39.238',58904,65366,59,1212,65296,-65237,0,4.49103e+269,2.99201e-312
00:00:29:379,,29556.4,550.23,65374.3,43.7909,-120.654,N 43° 47.4544',W 120° 39.2381',60192,77,65407,1288,-65289,65348,0,4.49103e+269,2.99201e-312
00:00:30:393,,29998.2,441.719,65430.2,GPS ERROR,GPS ERROR,N 43° 47.4544',W 120° 39.2381',60851,4,75,659,-73,-65332,0,4.49103e+269,2.99201e-312
00:00:31:406,,30440.4,442.266,65448.2,GPS ERROR,GPS ERROR,N 43° 47.4544',W 120° 39.2381',61363,65376,65521,512,65372,65446,0,4.49103e+269,2.99201e-312
00:00:32:419,,30837.3,396.866,65466.1,GPS ERROR,GPS ERROR,N 43° 47.4544',W 120° 39.2381',61816,65463,65503,453,87,-18,0,4.49103e+269,2.99201e-312
00:00:33:432,,31190.2,352.901,92607,GPS ERROR,GPS ERROR,N 43° 47.4544',W 120° 39.2381',62350,61,65533,534,-65402,30,0,4.49103e+269,2.99201e-312
00:00:34:445,,31549.8,359.654,92643,GPS ERROR,GPS ERROR,N 43° 47.4544',W 120° 39.2381',62740,65497,43,390,65436,-65490,0,4.49103e+269,2.99201e-312
00:00:35:457,,31807.1,257.217,92640.2,GPS ERROR,GPS ERROR,N 43° 47.4544',W 120° 39.2381',62956,65526,6,216,29,-37,0,4.49103e+269,2.99201e-312
00:00:36:471,,32048,240.979,92638.1,GPS ERROR,GPS ERROR,N 43° 47.4544',W 120° 39.2381',63232,65464,34,276,-62,28,0,4.49103e+269,2.99201e-312
00:00:37:484,,32294.2,246.128,92650.1,GPS ERROR,GPS ERROR,N 43° 47.4544',W 120° 39.2381',63444,65460,65480,212,-4,65446,0,4.49103e+269,2.99201e-312
00:00:38:497,,32488,193.835,92645.8,GPS ERROR,GPS ERROR,N 43° 47.4544',W 120° 39.2381',63702,93,65492,258,-65367,12,0,4.49103e+269,2.99201e-312
00:00:39:510,,32588.8,100.842,92651.5,GPS ERROR,GPS ERROR,N 43° 47.4544',W 120° 39.2381',63807,11,87,105,-82,-65405,0,4.49103e+269,2.99201e-312
00:00:40:563,,32692,103.176,92639.5,GPS ERROR,GPS ERROR,N 43° 47.4544',W 120° 39.2381',63969,65421,65462,162,65410,65375,0,4.49103e+269,2.99201e-312
00:00:41:569,,32749.1,57.0714,92623.9,GPS ERROR,GPS ERROR,N 43° 47.4544',W 120° 39.2381',63955,85,65359,-14,-65336,-103,0,4.49103e+269,2.99201e-312
00:00:42:582,,32789.8,40.7055,65451,GPS ERROR,GPS ERROR,N 43° 47.4544',W 120° 39.2381',64224,221,76,269,136,-65283,0,4.49103e+269,2.99201e-312
00:00:43:595,,32804.3,14.5535,4636.58,GPS ERROR,GPS ERROR,N 43° 47.4544',W 120° 39.2381',46904,64161,64243,-17320,63940,64167,0,4.49103e+269,2.99201e-312
00:00:44:608,Apogee,32763.6,-40.7288,90894.8,GPS ERROR,GPS ERROR,N 43° 47.4544',W 120° 39.2381',3133,60832,65031,-43771,-3329,788,0,4.49103e+269,2.99201e-312
00:00:45:621,,32862.6,99.0265,87436.7,GPS ERROR,GPS ERROR,N 43° 47.4544',W 120° 39.2381',55246,65235,1088,52113,4403,-63943,0,4.49103e+269,2.99201e-312
00:00:46:634,Apogee,32655.3,-207.318,89450.4,43.79,-120.654,N 43° 47.3986',W 120° 39.2528',5349,58926,6995,-49897,-6309,5907,0,4.49103e+269,2.99201e-312
00:00:47:648,,32635.1,-20.2534,82248.8,43.79,-120.654,N 43° 47.3987',W 120° 39.2523',60043,54428,54116,54694,-4498,47121,0,4.49103e+269,2.99201e-312
00:00:48:661,,32553.3,-81.8134,68080.9,43.79,-120.654,N 43° 47.4017',W 120° 39.254',39651,6068,60471,-20392,-48360,6355,0,4.49103e+269,2.99201e-312
00:00:49:674,,32463.1,-90.1704,63254.5,43.7901,-120.654,N 43° 47.404',W 120° 39.2544',55954,65417,58543,16303,59349,-1928,0,4.49103e+269,2.99201e-312
00:00:50:687,,32274.2,-188.895,64292.5,43.7902,-120.654,N 43° 47.4127',W 120° 39.2516',62731,1201,2555,6777,-64216,-55988,0,4.49103e+269,2.99201e-312
00:00:51:700,,32048,-226.16,7959.92,43.7903,-120.654,N 43° 47.4188',W 120° 39.2509',6834,1258,329,-55897,57,-2226,0,4.49103e+269,2.99201e-312
00:00:52:713,,32003.8,-44.2402,56865.4,43.7904,-120.654,N 43° 47.4223',W 120° 39.2489',20305,62106,62370,13471,60848,62041,0,4.49103e+269,2.99201e-312
00:00:53:726,,31851.9,-151.903,63373.7,43.7905,-120.654,N 43° 47.432',W 120° 39.2487',9259,500,35,-11046,-61606,-62335,0,4.49103e+269,2.99201e-312
00:00:54:739,,31653.5,-198.362,9057.65,43.7908,-120.654,N 43° 47.4451',W 120° 39.2513',50038,351,7811,40779,-149,7776,0,4.49103e+269,2.99201e-312
00:00:55:752,,31571.1,-82.431,64341,43.791,-120.654,N 43° 47.4611',W 120° 39.2467',63896,60289,2718,13858,59938,-5093,0,4.49103e+269,2.99201e-312
00:00:56:765,,31606.3,35.1629,61872.4,43.7913,-120.654,N 43° 47.4763',W 120° 39.2425',64522,1663,720,626,-58626,-1998,0,4.49103e+269,2.99201e-312
00:00:57:778,,31282.4,-323.89,65394.1,GPS ERROR,GPS ERROR,N 43° 47.4763',W 120° 39.2425',11792,62443,1942,-52730,60780,1222,0,4.49103e+269,2.99201e-312
00:00:58:791,,31113.8,-168.605,61966.1,43.7918,-120.654,N 43° 47.506',W 120° 39.2345',64092,63547,64995,52300,1104,63053,0,4.49103e+269,2.99201e-312
00:00:59:804,,30910.2,-203.583,89957.8,43.792,-120.654,N 43° 47.5223',W 120° 39.2303',3254,63212,1643,-60838,-335,-63352,0,4.49103e+269,2.99201e-312
00:01:00:817,,30743.1,-167.091,63541,43.7924,-120.654,N 43° 47.5416',W 120° 39.2282',63458,60382,2857,60204,-2830,1214,0,4.49103e+269,2.99201e-312
00:01:01:830,,30876.9,133.767,7968.12,43.7927,-120.654,N 43° 47.5598',W 120° 39.227',61271,200,5258,-2187,-60182,2401,0,4.49103e+269,2.99201e-312
00:01:02:843,,30539.7,-337.126,61978.2,43.7929,-120.654,N 43° 47.5766',W 120° 39.2274',2145,63978,6677,-59126,63778,1419,0,4.49103e+269,2.99201e-312
00:01:03:856,,30406.8,-132.923,67390,43.7932,-120.654,N 43° 47.5931',W 120° 39.2361',3065,62172,4774,920,-1806,-1903,0,4.49103e+269,2.99201e-312
00:01:04:870,,30227.1,-179.689,65725.5,43.7936,-120.654,N 43° 47.616',W 120° 39.2399',1537,64517,4563,-1528,2345,-211,0,4.49103e+269,2.99201e-312
00:01:05:883,,30069.6,-157.523,13364.1,43.794,-120.654,N 43° 47.6403',W 120° 39.2384',1322,64833,4581,-215,316,18,0,4.49103e+269,2.99201e-312
00:01:06:896,,29906.1,-163.511,11366.1,43.7943,-120.654,N 43° 47.6602',W 120° 39.2371',2171,64627,4677,849,-206,96,0,4.49103e+269,2.99201e-312
00:01:07:909,,29769.5,-136.629,66016.8,43.7946,-120.654,N 43° 47.6769',W 120° 39.237',2932,63739,4112,761,-888,-565,0,4.49103e+269,2.99201e-312
00:01:08:922,,29601,-168.501,65292,43.7949,-120.654,N 43° 47.6936',W 120° 39.242',2229,62889,4339,-703,-850,227,0,4.49103e+269,2.99201e-312
00:01:09:935,,29439.5,-161.46,65521.8,43.7952,-120.654,N 43° 47.714',W 120° 39.2489',1883,62069,4452,-346,-820,113,0,4.49103e+269,2.99201e-312
00:01:10:943,,29299.3,-140.146,66036.5,43.7956,-120.654,N 43° 47.7367',W 120° 39.2514',2050,61807,4083,167,-262,-369,0,4.49103e+269,2.99201e-312
00:01:11:945,,29159.1,-140.243,64900.9,43.796,-120.654,N 43° 47.7593',W 120° 39.2486',1580,62304,3043,-470,497,-1040,0,4.49103e+269,2.99201e-312
00:01:12:958,,29017.1,-142.011,65636.6,43.7963,-120.654,N 43° 47.7784',W 120° 39.2447',1563,62906,3847,-17,602,804,0,4.49103e+269,2.99201e-312
00:01:13:971,,28859.2,-157.912,65336.9,43.7966,-120.654,N 43° 47.7943',W 120° 39.2455',1648,62773,4255,85,-133,408,0,4.49103e+269,2.99201e-312
00:01:14:983,,28713.8,-145.374,12488.7,43.7969,-120.654,N 43° 47.8122',W 120° 39.2516',1584,63191,3510,-64,418,-745,0,4.49103e+269,2.99201e-312
00:01:15:997,,28575.8,-137.984,12030.4,43.7972,-120.654,N 43° 47.8342',W 120° 39.2565',1231,63489,4326,-353,298,816,0,4.49103e+269,2.99201e-312
00:01:17:009,,28414,-161.848,13463,43.7976,-120.654,N 43° 47.8581',W 120° 39.2551',1360,63769,4304,129,280,-22,0,4.49103e+269,2.99201e-312
00:01:18:022,,28283.3,-130.724,66097,43.798,-120.654,N 43° 47.8788',W 120° 39.2487',1332,63382,4567,-28,-387,263,0,4.49103e+269,2.99201e-312
00:01:19:036,,28151.6,-131.702,65942.5,43.7983,-120.654,N 43° 47.8957',W 120° 39.245',807,64099,5322,-525,717,755,0,4.49103e+269,2.99201e-312
00:01:20:049,,27989,-162.502,65473.3,43.7985,-120.654,N 43° 47.9122',W 120° 39.2449',134,63410,4313,-673,-689,-1009,0,4.49103e+269,2.99201e-312
00:01:21:062,,27869.2,-119.822,13756.6,43.7989,-120.654,N 43° 47.9344',W 120° 39.2518',64617,64447,4222,64483,1037,-91,0,4.49103e+269,2.99201e-312
00:01:22:076,,27726.8,-142.437,66028.6,43.7993,-120.654,N 43° 47.9586',W 120° 39.2516',63418,63350,4314,-1199,-1097,92,0,4.49103e+269,2.99201e-312
00:01:23:089,,27580.4,-146.439,13329.7,43.7997,-120.654,N 43° 47.982',W 120° 39.2449',63652,63433,4729,234,83,415,0,4.49103e+269,2.99201e-312
00:01:24:102,,27424.5,-155.897,66337.1,43.8,-120.654,N 43° 48.0022',W 120° 39.2401',63510,63360,4247,-142,-73,-482,0,4.49103e+269,2.99201e-312
00:01:25:115,,27282,-142.435,66458.5,43.8003,-120.654,N 43° 48.0189',W 120° 39.2417',63172,62918,4364,-338,-442,117,0,4.49103e+269,2.99201e-312
00:01:26:128,,27126.3,-155.726,66146.1,43.8006,-120.654,N 43° 48.0389',W 120° 39.2445',63126,62897,4375,-46,-21,11,0,4.49103e+269,2.99201e-312
00:01:27:141,,26975.3,-150.944,66490.8,43.8011,-120.654,N 43° 48.0632',W 120° 39.2483',63678,62803,3863,552,-94,-512,0,4.49103e+269,2.99201e-312
00:01:28:154,,26845.3,-130.029,65022.8,43.8015,-120.654,N 43° 48.0879',W 120° 39.2469',63432,61791,3350,-246,-1012,-513,0,4.49103e+269,2.99201e-312
00:01:29:167,,26711.3,-134.011,65569.1,43.8018,-120.654,N 43° 48.1097',W 120° 39.2446',63296,61973,3327,-136,182,-23,0,4.49103e+269,2.99201e-312
00:01:30:180,,26578,-133.344,65815.9,43.8021,-120.654,N 43° 48.126',W 120° 39.2449',63403,61895,3486,107,-78,159,0,4.49103e+269,2.99201e-312
00:01:31:193,,26419.4,-158.535,65117.1,43.8024,-120.654,N 43° 48.1442',W 120° 39.2474',63942,61707,3155,539,-188,-331,0,4.49103e+269,2.99201e-312
00:01:32:205,,26283.7,-135.686,64767.1,43.8028,-120.654,N 43° 48.1669',W 120° 39.2537',63922,62208,2564,-20,501,-591,0,4.49103e+269,2.99201e-312
00:01:33:219,,26142,-141.775,65359.6,43.8032,-120.654,N 43° 48.1905',W 120° 39.254',63729,61684,2288,-193,-524,-276,0,4.49103e+269,2.99201e-312
00:01:34:232,,26015.2,-126.813,64870.9,43.8035,-120.654,N 43° 48.2124',W 120° 39.2496',64015,61300,2571,286,-384,283,0,4.49103e+269,2.99201e-312
00:01:35:244,,25872.5,-142.606,65310,43.8038,-120.654,N 43° 48.2296',W 120° 39.2481',63967,60850,2570,-48,-450,-1,0,4.49103e+269,2.99201e-312
00:01:36:258,,25725.5,-147.042,64915.9,43.8041,-120.654,N 43° 48.2466',W 120° 39.2525',63701,60722,3735,-266,-128,1165,0,4.49103e+269,2.99201e-312
00:01:37:270,,25589.6,-135.931,65882.1,43.8044,-120.654,N 43° 48.2654',W 120° 39.2606',63475,62307,3656,-226,1585,-79,0,4.49103e+269,2.99201e-312
00:01:38:284,,25440.4,-149.18,66171.3,43.8048,-120.654,N 43° 48.2881',W 120° 39.2665',63406,62451,3346,-69,144,-310,0,4.49103e+269,2.99201e-312
00:01:39:296,,25302.2,-138.157,12880.8,43.8051,-120.654,N 43° 48.309',W 120° 39.263',63418,62151,3189,12,-300,-157,0,4.49103e+269,2.99201e-312
00:01:40:310,,25181.5,-120.766,66058.1,43.8055,-120.654,N 43° 48.3273',W 120° 39.2593',63516,62449,3782,98,298,593,0,4.49103e+269,2.99201e-312
00:01:41:316,,25036.7,-144.792,66790.6,43.8057,-120.654,N 43° 48.3426',W 120° 39.2594',63934,62378,3294,418,-71,-488,0,4.49103e+269,2.99201e-312
00:01:42:320,,24896.2,-140.434,65870.2,43.806,-120.654,N 43° 48.3591',W 120° 39.2678',64776,61414,2767,842,-964,-527,0,4.49103e+269,2.99201e-312
00:01:43:333,,24763.7,-132.565,66289.4,43.8063,-120.655,N 43° 48.3781',W 120° 39.2763',64869,61852,3476,93,438,709,0,4.49103e+269,2.99201e-312
00:01:44:346,,24631.8,-131.924,64847.3,43.8067,-120.655,N 43° 48.4001',W 120° 39.2774',65419,60977,2294,550,-875,-1182,0,4.49103e+269,2.99201e-312
00:01:45:359,,24504.7,-127.041,13122.9,43.807,-120.655,N 43° 48.4186',W 120° 39.2752',166,61890,2805,-65253,913,511,0,4.49103e+269,2.99201e-312
00:01:46:372,,24383.9,-120.813,65098,43.8072,-120.655,N 43° 48.434',W 120° 39.2735',1301,62189,2964,1135,299,159,0,4.49103e+269,2.99201e-312
00:01:47:385,,24280.5,-103.432,64880.3,43.8075,-120.655,N 43° 48.4476',W 120° 39.2783',1247,61490,3030,-54,-699,66,0,4.49103e+269,2.99201e-312
00:01:48:398,,24088,-192.452,65835.2,43.8077,-120.655,N 43° 48.463',W 120° 39.2845',2055,62752,3920,808,1262,890,0,4.49103e+269,2.99201e-312
00:01:49:411,,23970.4,-117.604,63591.2,43.8081,-120.655,N 43° 48.4843',W 120° 39.2869',2319,61804,3738,264,-948,-182,0,4.49103e+269,2.99201e-312
00:01:50:424,,23864.4,-106.037,65737.4,43.8084,-120.655,N 43° 48.5051',W 120° 39.2831',3090,61850,3199,771,46,-539,0,4.49103e+269,2.99201e-312
00:01:51:437,,23684.4,-179.946,65640.4,43.8087,-120.655,N 43° 48.5205',W 120° 39.2779',2400,63836,4267,-690,1986,1068,0,4.49103e+269,2.99201e-312
00:01:52:450,,23587,-97.4095,66037,43.8089,-120.655,N 43° 48.534',W 120° 39.2798',2790,63142,4078,390,-694,-189,0,4.49103e+269,2.99201e-312
00:01:53:463,,23419.8,-167.26,66250.2,43.8091,-120.655,N 43° 48.5484',W 120° 39.2841',1530,63545,4738,-1260,403,660,0,4.49103e+269,2.99201e-312
00:01:54:476,,23303.6,-116.142,66027.7,43.8095,-120.655,N 43° 48.5671',W 120° 39.2884',548,64267,4914,-982,722,176,0,4.49103e+269,2.99201e-312
00:01:55:489,,23150.9,-152.751,13238.3,43.8098,-120.655,N 43° 48.5865',W 120° 39.287',65518,64220,4300,64970,-47,-614,0,4.49103e+269,2.99201e-312
00:01:56:502,,23068.1,-82.7811,66095.9,43.8101,-120.655,N 43° 48.6034',W 120° 39.2809',64539,64170,4940,-979,-50,640,0,4.49103e+269,2.99201e-312
00:01:57:516,,22918,-150.122,65802.3,43.8103,-120.655,N 43° 48.6173',W 120° 39.2784',64810,64709,3982,271,539,-958,0,4.49103e+269,2.99201e-312
00:01:58:529,,22798.6,-119.381,66746,43.8105,-120.655,N 43° 48.6311',W 120° 39.2821',63518,63953,4360,-1292,-756,378,0,4.49103e+269,2.99201e-312
00:01:59:542,,22620.8,-177.783,12420.4,43.8108,-120.655,N 43° 48.6464',W 120° 39.2866',63109,62866,3924,-409,-1087,-436,0,4.49103e+269,2.99201e-312
00:02:00:555,,22512.6,-108.233,66092,43.8111,-120.655,N 43° 48.667',W 120° 39.2887',63524,62113,3389,415,-753,-535,0,4.49103e+269,2.99201e-312
00:02:01:568,,22382.5,-130.113,65636.7,43.8115,-120.655,N 43° 48.6871',W 120° 39.2862',64055,61310,3026,531,-803,-363,0,4.49103e+269,2.99201e-312
00:02:02:581,,22247.7,-134.727,64678.2,43.8117,-120.655,N 43° 48.7029',W 120° 39.2822',460,61784,2427,-63595,474,-599,0,4.49103e+269,2.99201e-312
00:02:03:594,,22123.4,-124.337,65102.3,43.8119,-120.655,N 43° 48.7166',W 120° 39.2854',1896,62122,2441,1436,338,14,0,4.49103e+269,2.99201e-312
00:02:04:607,,22013.8,-109.554,66075.1,43.8122,-120.655,N 43° 48.7331',W 120° 39.2926',2503,62351,3331,607,229,890,0,4.49103e+269,2.99201e-312
00:02:05:620,,21856.4,-157.418,65575.6,43.8126,-120.655,N 43° 48.7534',W 120° 39.2965',2346,63130,3832,-157,779,501,0,4.49103e+269,2.99201e-312
00:02:06:633,,21730.6,-125.811,65534.8,43.8129,-120.655,N 43° 48.7731',W 120° 39.292',2058,62890,4460,-288,-240,628,0,4.49103e+269,2.99201e-312
00:02:07:646,,21600.9,-129.711,12910.5,43.8132,-120.655,N 43° 48.7895',W 120° 39.2866',1368,64048,4998,-690,1158,538,0,4.49103e+269,2.99201e-312
00:02:08:659,,21473.7,-127.209,65269.8,43.8134,-120.655,N 43° 48.8024',W 120° 39.2816',1007,63899,5476,-361,-149,478,0,4.49103e+269,2.99201e-312
00:02:09:672,,21355.3,-118.42,12663.1,43.8136,-120.655,N 43° 48.8137',W 120° 39.2806',795,64503,4454,-212,604,-1022,0,4.49103e+269,2.99201e-312
00:02:10:680,,21227.9,-127.36,13280.6,43.8138,-120.655,N 43° 48.8291',W 120° 39.2825',65372,64422,4655,64577,-81,201,0,4.49103e+269,2.99201e-312
00:02:11:681,,21083,-144.94,66233.1,43.8142,-120.655,N 43° 48.8491',W 120° 39.2787',65301,64271,4401,-71,-151,-254,0,4.49103e+269,2.99201e-312
00:02:12:694,,20969.9,-113.048,65385.3,43.8144,-120.655,N 43° 48.8662',W 120° 39.2712',64282,63327,5048,-1019,-944,647,0,4.49103e+269,2.99201e-312
00:02:13:707,,20849.3,-120.665,66454.8,43.8147,-120.654,N 43° 48.8804',W 120° 39.2642',63938,63325,4479,-344,-2,-569,0,4.49103e+269,2.99201e-312
00:02:14:721,,20722.9,-126.33,65191.5,43.8149,-120.654,N 43° 48.8926',W 120° 39.2624',63926,62690,4323,-12,-635,-156,0,4.49103e+269,2.99201e-312
00:02:15:734,,20590.4,-132.532,66254.3,43.8151,-120.654,N 43° 48.908',W 120° 39.2636',63062,63377,4162,-864,687,-161,0,4.49103e+269,2.99201e-312
00:02:16:747,,20473.2,-117.218,66465.2,43.8155,-120.654,N 43° 48.9279',W 120° 39.2612',63116,62169,3951,54,-1208,-211,0,4.49103e+269,2.99201e-312
00:02:17:760,,20332.7,-140.511,64995,43.8158,-120.654,N 43° 48.9482',W 120° 39.2551',64285,61957,3103,1169,-212,-848,0,4.49103e+269,2.99201e-312
00:02:18:773,,20235.9,-96.7292,64698.8,43.8161,-120.654,N 43° 48.9631',W 120° 39.2449',65,61149,2978,-64220,-808,-125,0,4.49103e+269,2.99201e-312
00:02:19:787,,20139.5,-96.3999,65742.5,43.8163,-120.654,N 43° 48.9767',W 120° 39.2388',1281,61818,2619,1216,669,-359,0,4.49103e+269,2.99201e-312
00:02:20:800,,19997.1,-142.482,65268,43.8165,-120.654,N 43° 48.9923',W 120° 39.2398',1676,61783,4163,395,-35,1544,0,4.49103e+269,2.99201e-312
00:02:21:812,,19845.7,-151.356,65879.7,43.8169,-120.654,N 43° 49.0112',W 120° 39.2427',2291,63201,4028,615,1418,-135,0,4.49103e+269,2.99201e-312
00:02:22:826,,19725.6,-120.149,66715.7,43.8172,-120.654,N 43° 49.0327',W 120° 39.24',1949,63955,5003,-342,754,975,0,4.49103e+269,2.99201e-312
00:02:23:839,,19616.6,-108.95,12582.7,43.8175,-120.654,N 43° 49.0512',W 120° 39.2344',1016,64440,5014,-933,485,11,0,4.49103e+269,2.99201e-312
00:02:24:851,,19501.6,-115.045,66409.2,43.8178,-120.654,N 43° 49.0659',W 120° 39.2304',65305,64696,4888,64289,256,-126,0,4.49103e+269,2.99201e-312
00:02:25:864,,19369.3,-132.26,13711.8,43.818,-120.654,N 43° 49.0785',W 120° 39.2314',64615,64533,4495,-690,-163,-393,0,4.49103e+269,2.99201e-312
00:02:26:878,,19272.3,-97.0329,65147.1,43.8182,-120.654,N 43° 49.0946',W 120° 39.2351',63952,63945,4904,-663,-588,409,0,4.49103e+269,2.99201e-312
00:02:27:891,,19139.9,-132.373,13177.6,43.8186,-120.654,N 43° 49.1134',W 120° 39.2307',63042,63422,4577,-910,-523,-327,0,4.49103e+269,2.99201e-312
00:02:28:904,,19005.2,-134.67,13737.6,43.8189,-120.654,N 43° 49.1324',W 120° 39.2237',62703,63158,4002,-339,-264,-575,0,4.49103e+269,2.99201e-312
00:02:29:916,,18865.4,-139.828,66329,43.8191,-120.654,N 43° 49.1459',W 120° 39.2149',62753,62554,3777,50,-604,-225,0,4.49103e+269,2.99201e-312
00:02:30:929,,18739.5,-125.898,13131.4,43.8193,-120.654,N 43° 49.1579',W 120° 39.213',62979,62175,3300,226,-379,-477,0,4.49103e+269,2.99201e-312
00:02:31:943,,18623.3,-116.166,66432,43.8195,-120.654,N 43° 49.1704',W 120° 39.2153',63044,61272,3667,65,-903,367,0,4.49103e+269,2.99201e-312
00:02:32:957,,18488.8,-134.555,65795.3,43.8198,-120.654,N 43° 49.1886',W 120° 39.2173',63731,62047,3017,687,775,-650,0,4.49103e+269,2.99201e-312
00:02:33:970,,18378.2,-110.606,64887.8,43.8201,-120.654,N 43° 49.2071',W 120° 39.2126',64440,61465,2672,709,-582,-345,0,4.49103e+269,2.99201e-312
00:02:34:983,,18260.6,-117.551,65108.3,43.8204,-120.653,N 43° 49.2224',W 120° 39.2048',65078,61991,2736,638,526,64,0,4.49103e+269,2.99201e-312
00:02:35:996,,18164.4,-96.1813,65600.6,43.8206,-120.653,N 43° 49.2332',W 120° 39.199',433,61734,2372,-64645,-257,-364,0,4.49103e+269,2.99201e-312
00:02:37:009,,18048.9,-115.558,65535.5,43.8208,-120.653,N 43° 49.2456',W 120° 39.2018',303,62464,2426,-130,730,54,0,4.49103e+269,2.99201e-312
00:02:38:022,,17897.9,-150.935,65494.2,43.821,-120.653,N 43° 49.2598',W 120° 39.2037',1386,62328,3644,1083,-136,1218,0,4.49103e+269,2.99201e-312
00:02:39:035,,17796.8,-101.116,13274.9,43.8213,-120.653,N 43° 49.2806',W 120° 39.2093',1519,62552,2728,133,224,-916,0,4.49103e+269,2.99201e-312
00:02:40:048,,17670,-126.871,66469.6,43.8216,-120.653,N 43° 49.2984',W 120° 39.2092',2214,63227,3752,695,675,1024,0,4.49103e+269,2.99201e-312
00:02:41:053,,17548.6,-121.341,12118.9,43.8218,-120.653,N 43° 49.3107',W 120° 39.2067',2444,64329,4076,230,1102,324,0,4.49103e+269,2.99201e-312
00:02:42:057,,17427.8,-120.835,66085.4,43.822,-120.653,N 43° 49.3211',W 120° 39.2094',3131,63949,3428,687,-380,-648,0,4.49103e+269,2.99201e-312
00:02:43:070,,17312.4,-115.398,64412.6,43.8222,-120.654,N 43° 49.3327',W 120° 39.2162',3386,62950,3883,255,-999,455,0,4.49103e+269,2.99201e-312
00:02:44:083,,17189.2,-123.133,66547,43.8225,-120.654,N 43° 49.3489',W 120° 39.2167',2670,62434,3905,-716,-516,22,0,4.49103e+269,2.99201e-312
00:02:45:096,,17094.9,-94.3216,12904.5,43.8227,-120.653,N 43° 49.3647',W 120° 39.2078',2404,62649,3065,-266,215,-840,0,4.49103e+269,2.99201e-312
00:02:46:109,,16962.4,-132.513,65800.1,43.8229,-120.653,N 43° 49.3757',W 120° 39.1938',2399,62991,3541,-5,342,476,0,4.49103e+269,2.99201e-312
00:02:47:122,,16839.7,-122.741,66582.8,43.8231,-120.653,N 43° 49.3846',W 120° 39.1916',2412,64299,4336,13,1308,795,0,4.49103e+269,2.99201e-312
00:02:48:135,,16737.9,-101.801,12709.1,43.8232,-120.653,N 43° 49.394',W 120° 39.1947',1768,63586,4480,-644,-713,144,0,4.49103e+269,2.99201e-312
00:02:49:148,,16634.3,-103.59,12401.4,43.8235,-120.653,N 43° 49.4083',W 120° 39.1993',973,64349,5211,-795,763,731,0,4.49103e+269,2.99201e-312
00:02:50:162,,16523.6,-110.696,11524.4,43.8237,-120.653,N 43° 49.4237',W 120° 39.1957',181,64347,5658,-792,-2,447,0,4.49103e+269,2.99201e-312
00:02:51:175,,16399,-124.632,12543.2,43.8239,-120.653,N 43° 49.4352',W 120° 39.1867',65358,64351,5169,65177,4,-489,0,4.49103e+269,2.99201e-312
00:02:52:188,,16298.1,-100.807,12073.9,43.8241,-120.653,N 43° 49.4459',W 120° 39.1829',64433,64131,4927,-925,-220,-242,0,4.49103e+269,2.99201e-312
00:02:53:201,,16164.5,-133.695,66637.9,43.8242,-120.653,N 43° 49.4538',W 120° 39.1832',63540,64191,4760,-893,60,-167,0,4.49103e+269,2.99201e-312
00:02:54:214,,16053.4,-111.036,66333.6,43.8244,-120.653,N 43° 49.4653',W 120° 39.188',63757,64387,4107,217,196,-653,0,4.49103e+269,2.99201e-312
00:02:55:227,,15933.4,-120.034,13068.8,43.8247,-120.653,N 43° 49.4793',W 120° 39.1827',63300,63566,3872,-457,-821,-235,0,4.49103e+269,2.99201e-312
00:02:56:240,,15829,-104.432,66622.7,43.8249,-120.653,N 43° 49.4948',W 120° 39.1729',62748,63240,3727,-552,-326,-145,0,4.49103e+269,2.99201e-312
00:02:57:253,,15696.3,-132.615,66692,43.8251,-120.653,N 43° 49.504',W 120° 39.1599',62552,62739,3510,-196,-501,-217,0,4.49103e+269,2.99201e-312
00:02:58:266,,15576.2,-120.136,66060.9,43.8252,-120.653,N 43° 49.5105',W 120° 39.152',62845,62488,2688,293,-251,-822,0,4.49103e+269,2.99201e-312
00:02:59:279,,15451.9,-124.279,65950.7,43.8253,-120.652,N 43° 49.5179',W 120° 39.1494',63097,61873,2941,252,-615,253,0,4.49103e+269,2.99201e-312
00:03:00:292,,15346.1,-105.815,65454,43.8255,-120.653,N 43° 49.5311',W 120° 39.15',64306,60936,2774,1209,-937,-167,0,4.49103e+269,2.99201e-312
00:03:01:305,,15219.7,-126.377,64804.7,43.8258,-120.652,N 43° 49.5456',W 120° 39.1454',64708,61474,2202,402,538,-572,0,4.49103e+269,2.99201e-312
00:03:02:318,,15139.2,-80.5572,63839.3,43.826,-120.652,N 43° 49.5573',W 120° 39.1383',65012,61361,1964,304,-113,-238,0,4.49103e+269,2.99201e-312
00:03:03:331,,15001.5,-137.661,65636.2,43.8261,-120.652,N 43° 49.5672',W 120° 39.1309',64859,61599,2463,-153,238,499,0,4.49103e+269,2.99201e-312
00:03:04:344,,14900.8,-100.68,63970.8,43.8263,-120.652,N 43° 49.5773',W 120° 39.1308',65214,61021,1926,355,-578,-537,0,4.49103e+269,2.99201e-312
00:03:05:357,,14780.4,-120.466,64687.4,43.8265,-120.652,N 43° 49.5911',W 120° 39.1335',1191,61243,2142,-64023,222,216,0,4.49103e+269,2.99201e-312
00:03:06:370,,14696,-84.3864,64312.1,43.8268,-120.652,N 43° 49.6077',W 120° 39.1281',1336,61479,2843,145,236,701,0,4.49103e+269,2.99201e-312
00:03:07:384,,14541.4,-154.586,64879.7,43.827,-120.652,N 43° 49.6207',W 120° 39.1199',2253,62217,3532,917,738,689,0,4.49103e+269,2.99201e-312
00:03:08:397,,14434.3,-107.086,64843.3,43.8271,-120.652,N 43° 49.6289',W 120° 39.1106',2718,63161,3644,465,944,112,0,4.49103e+269,2.99201e-312
00:03:09:410,,14323.1,-111.159,12339.5,43.8273,-120.652,N 43° 49.6364',W 120° 39.1082',2641,63866,4359,-77,705,715,0,4.49103e+269,2.99201e-312
00:03:10:423,,14212.4,-110.745,66616.8,43.8274,-120.652,N 43° 49.647',W 120° 39.1124',2505,63577,4246,-136,-289,-113,0,4.49103e+269,2.99201e-312
00:03:11:432,,14102.6,-109.842,12480.9,43.8277,-120.652,N 43° 49.6601',W 120° 39.1141',1497,64313,4735,-1008,736,489,0,4.49103e+269,2.99201e-312
00:03:12:433,,13985.8,-116.785,13781.6,43.8279,-120.652,N 43° 49.6741',W 120° 39.1097',1060,64699,4947,-437,386,212,0,4.49103e+269,2.99201e-312
00:03:13:446,,13886.5,-99.2503,12776.1,43.8281,-120.652,N 43° 49.6841',W 120° 39.1023',857,64383,4315,-203,-316,-632,0,4.49103e+269,2.99201e-312
00:03:14:459,,13787.1,-99.4074,13324.7,43.8282,-120.652,N 43° 49.6899',W 120° 39.099',65060,64298,5152,64203,-85,837,0,4.49103e+269,2.99201e-312
00:03:15:472,,13663.3,-123.795,12615.5,43.8283,-120.652,N 43° 49.7001',W 120° 39.1065',64629,64328,4515,-431,30,-637,0,4.49103e+269,2.99201e-312
00:03:16:485,,13574.8,-88.526,65539.2,43.8286,-120.652,N 43° 49.7137',W 120° 39.1102',63851,63018,4345,-778,-1310,-170,0,4.49103e+269,2.99201e-312
00:03:17:498,,13430.2,-144.56,13079.6,43.8288,-120.652,N 43° 49.7286',W 120° 39.1043',63667,63679,3803,-184,661,-542,0,4.49103e+269,2.99201e-312
00:03:18:511,,13319.9,-110.358,13708.5,43.829,-120.652,N 43° 49.7412',W 120° 39.0957',63560,63053,4068,-107,-626,265,0,4.49103e+269,2.99201e-312
00:03:19:524,,13205.2,-114.724,65756.9,43.8291,-120.652,N 43° 49.7488',W 120° 39.0906',64164,62318,3372,604,-735,-696,0,4.49103e+269,2.99201e-312
00:03:20:537,,13120.4,-84.8042,64820.2,43.8293,-120.652,N 43° 49.7571',W 120° 39.0927',65452,61676,2855,1288,-642,-517,0,4.49103e+269,2.99201e-312
00:03:21:550,,12982.7,-137.653,65938.3,43.8295,-120.652,N 43° 49.7687',W 120° 39.0957',1336,62114,3472,-64116,438,617,0,4.49103e+269,2.99201e-312
00:03:22:563,,12898.5,-84.1787,65034.4,43.8298,-120.652,N 43° 49.7854',W 120° 39.0926',2251,61785,3038,915,-329,-434,0,4.49103e+269,2.99201e-312
00:03:23:576,,12764.2,-134.291,12464.1,43.83,-120.651,N 43° 49.7981',W 120° 39.0831',2334,63376,4657,83,1591,1619,0,4.49103e+269,2.99201e-312
00:03:24:590,,12656.8,-107.471,66423.4,43.8301,-120.651,N 43° 49.8066',W 120° 39.0753',2011,63751,4550,-323,375,-107,0,4.49103e+269,2.99201e-312
00:03:25:603,,12543.1,-113.623,12718.2,43.8302,-120.651,N 43° 49.8142',W 120° 39.0754',1373,64328,5054,-638,577,504,0,4.49103e+269,2.99201e-312
00:03:26:616,,12456.5,-86.6824,66530.1,43.8304,-120.651,N 43° 49.8249',W 120° 39.0778',818,64477,4978,-555,149,-76,0,4.49103e+269,2.99201e-312
00:03:27:629,,12359.3,-97.1047,12011.4,43.8307,-120.651,N 43° 49.8391',W 120° 39.0789',490,65231,4549,-328,754,-429,0,4.49103e+269,2.99201e-312
00:03:28:642,,12235.3,-124.061,11794.8,43.8309,-120.651,N 43° 49.8548',W 120° 39.0719',64764,65523,5023,64274,292,474,0,4.49103e+269,2.99201e-312
00:03:29:655,,12146.7,-88.5675,66152.6,43.8311,-120.651,N 43° 49.8656',W 120° 39.0624',64818,64610,5068,54,-913,45,0,4.49103e+269,2.99201e-312
00:03:30:668,,12033.6,-113.099,11850.5,43.8312,-120.651,N 43° 49.8729',W 120° 39.0576',65050,64927,4912,232,317,-156,0,4.49103e+269,2.99201e-312
00:03:31:681,,11923.2,-110.392,13091,43.8314,-120.651,N 43° 49.881',W 120° 39.0611',64609,65151,4774,-441,224,-138,0,4.49103e+269,2.99201e-312
00:03:32:694,,11810.5,-112.724,66399.1,43.8316,-120.651,N 43° 49.8949',W 120° 39.0635',64771,64994,4053,162,-157,-721,0,4.49103e+269,2.99201e-312
00:03:33:707,,11706.4,-104.136,66812.2,43.8318,-120.651,N 43° 49.9088',W 120° 39.0599',64284,65147,4620,-487,153,567,0,4.49103e+269,2.99201e-312
00:03:34:720,,11594,-112.374,13307.5,43.832,-120.651,N 43° 49.9204',W 120° 39.0512',64217,217,4682,-67,-64930,62,0,4.49103e+269,2.99201e-312
00:03:35:733,,11487.9,-106.101,13109.3,43.8321,-120.651,N 43° 49.9275',W 120° 39.0451',64326,64147,4915,109,63930,233,0,4.49103e+269,2.99201e-312
00:03:36:746,,11374.1,-113.815,66215.6,43.8323,-120.651,N 43° 49.9362',W 120° 39.0421',64172,64546,4739,-154,399,-176,0,4.49103e+269,2.99201e-312
00:03:37:759,,11266.5,-107.574,13203.7,43.8325,-120.651,N 43° 49.9473',W 120° 39.0413',64411,64387,4269,239,-159,-470,0,4.49103e+269,2.99201e-312
00:03:38:772,,11138.4,-128.143,66647.1,43.8327,-120.651,N 43° 49.9619',W 120° 39.0373',64051,63812,3983,-360,-575,-286,0,4.49103e+269,2.99201e-312
00:03:39:785,,11044.9,-93.4229,65514.9,43.8329,-120.65,N 43° 49.9759',W 120° 39.0243',63185,62230,3931,-866,-1582,-52,0,4.49103e+269,2.99201e-312
00:03:40:807,,10927.9,-117.041,66292.6,43.833,-120.65,N 43° 49.9819',W 120° 39.012',63198,62589,3251,13,359,-680,0,4.49103e+269,2.99201e-312
00:03:41:811,,10837.8,-90.1342,65600.3,43.8331,-120.65,N 43° 49.987',W 120° 39.0079',64239,61839,2536,1041,-750,-715,0,4.49103e+269,2.99201e-312
00:03:42:825,,10710.5,-127.236,65441.7,43.8332,-120.65,N 43° 49.9937',W 120° 39.0063',63879,61652,2512,-360,-187,-24,0,4.49103e+269,2.99201e-312
00:03:43:838,,10618.8,-91.6861,65705.1,43.8334,-120.65,N 43° 50.0067',W 120° 39.0045',71,60929,1717,-63808,-723,-795,0,4.49103e+269,2.99201e-312
00:03:44:851,,10504.7,-114.113,66407.6,43.8336,-120.65,N 43° 50.0182',W 120° 38.99',969,61610,2740,898,681,1023,0,4.49103e+269,2.99201e-312
00:03:45:864,,10404.1,-100.643,66455.6,43.8338,-120.65,N 43° 50.0254',W 120° 38.9774',2356,61968,3344,1387,358,604,0,4.49103e+269,2.99201e-312
00:03:46:877,,10276.5,-127.615,66082.5,43.8338,-120.65,N 43° 50.029',W 120° 38.9701',2270,62735,3401,-86,767,57,0,4.49103e+269,2.99201e-312
00:03:47:890,,10173.5,-102.919,66664.2,43.8339,-120.649,N 43° 50.0349',W 120° 38.9658',2213,63240,3909,-57,505,508,0,4.49103e+269,2.99201e-312
00:03:48:903,,10070.1,-103.436,66471,43.8341,-120.649,N 43° 50.0458',W 120° 38.9674',1591,63468,4475,-622,228,566,0,4.49103e+269,2.99201e-312
00:03:49:916,,9978.6,-91.5084,12247,43.8343,-120.649,N 43° 50.0557',W 120° 38.9576',285,64219,4705,-1306,751,230,0,4.49103e+269,2.99201e-312
00:03:50:929,,9864.28,-114.324,66066.5,43.8344,-120.649,N 43° 50.0648',W 120° 38.9466',64994,64385,4601,64709,166,-104,0,4.49103e+269,2.99201e-312
00:03:51:942,,9766.14,-98.1419,66360.8,43.8345,-120.649,N 43° 50.068',W 120° 38.9367',64059,64277,5021,-935,-108,420,0,4.49103e+269,2.99201e-312
00:03:52:955,,9670.01,-96.1311,65762.3,43.8345,-120.649,N 43° 50.0701',W 120° 38.9318',63412,62525,4198,-647,-1752,-823,0,4.49103e+269,2.99201e-312
00:03:53:968,,9549.63,-120.378,65072,43.8346,-120.649,N 43° 50.0764',W 120° 38.9324',63528,62945,4024,116,420,-174,0,4.49103e+269,2.99201e-312
00:03:54:981,,9442.79,-106.844,64386.7,43.8348,-120.649,N 43° 50.0871',W 120° 38.928',63677,61509,3046,149,-1436,-978,0,4.49103e+269,2.99201e-312
00:03:55:994,,9340.51,-102.273,64665.4,43.8349,-120.649,N 43° 50.0951',W 120° 38.9191',65059,61866,2656,1382,357,-390,0,4.49103e+269,2.99201e-312
00:03:57:007,,9245.7,-94.8154,65527.6,43.8349,-120.648,N 43° 50.097',W 120° 38.9081',922,62317,3044,-64137,451,388,0,4.49103e+269,2.99201e-312
00:03:58:020,,9126.54,-119.155,64775.6,43.8349,-120.648,N 43° 50.097',W 120° 38.9032',1421,62202,4003,499,-115,959,0,4.49103e+269,2.99201e-312
00:03:59:033,,9019.9,-106.64,65423.3,43.835,-120.648,N 43° 50.0996',W 120° 38.9007',996,63011,4382,-425,809,379,0,4.49103e+269,2.99201e-312
00:04:00:047,,8914.46,-105.445,65388.2,43.8351,-120.648,N 43° 50.1049',W 120° 38.9007',227,63503,4605,-769,492,223,0,4.49103e+269,2.99201e-312
00:04:01:060,,8816.39,-98.0653,65725.1,43.8352,-120.648,N 43° 50.1135',W 120° 38.892',64781,63457,4435,64554,-46,-170,0,4.49103e+269,2.99201e-312
00:04:02:073,,8722.75,-93.6375,65533.9,43.8353,-120.648,N 43° 50.1184',W 120° 38.8768',63697,62531,3718,-1084,-926,-717,0,4.49103e+269,2.99201e-312
00:04:03:086,,8604.77,-117.984,65778.8,43.8353,-120.648,N 43° 50.1168',W 120° 38.8674',63820,61987,3759,123,-544,41,0,4.49103e+269,2.99201e-312
00:04:04:099,,8500.72,-104.046,65410.3,43.8353,-120.648,N 43° 50.117',W 120° 38.8658',64529,61655,3113,709,-332,-646,0,4.49103e+269,2.99201e-312
00:04:05:112,,8403.14,-97.584,65252.5,43.8354,-120.648,N 43° 50.1232',W 120° 38.8698',234,61836,2900,-64295,181,-213,0,4.49103e+269,2.99201e-312
00:04:06:125,,8303.42,-99.717,65504.3,43.8355,-120.648,N 43° 50.1288',W 120° 38.8627',1735,61847,3626,1501,11,726,0,4.49103e+269,2.99201e-312
00:04:07:138,,8206.45,-96.968,13147.2,43.8356,-120.648,N 43° 50.1332',W 120° 38.8526',1896,62747,3925,161,900,299,0,4.49103e+269,2.99201e-312
00:04:08:151,,8099.69,-106.761,12366.4,43.8356,-120.647,N 43° 50.1332',W 120° 38.8426',816,63948,5198,-1080,1201,1273,0,4.49103e+269,2.99201e-312
00:04:09:164,,7998.53,-101.166,66663.4,43.8355,-120.647,N 43° 50.1307',W 120° 38.8418',64990,63952,4963,64174,4,-235,0,4.49103e+269,2.99201e-312
00:04:10:177,,7886.46,-112.068,66620.5,43.8355,-120.647,N 43° 50.1319',W 120° 38.8404',63895,63298,4360,-1095,-654,-603,0,4.49103e+269,2.99201e-312
00:04:11:199,,7799.17,-87.2865,66658.2,43.8356,-120.647,N 43° 50.1355',W 120° 38.8381',63052,61699,4474,-843,-1599,114,0,4.49103e+269,2.99201e-312
00:04:12:203,,7693.4,-105.778,64817.5,43.8357,-120.647,N 43° 50.1396',W 120° 38.8299',63252,61226,3318,200,-473,-1156,0,4.49103e+269,2.99201e-312
00:04:13:216,,7581.22,-112.172,65508.8,43.8356,-120.647,N 43° 50.1379',W 120° 38.821',64358,62193,3325,1106,967,7,0,4.49103e+269,2.99201e-312
00:04:14:229,,7480.93,-100.295,63865.5,43.8356,-120.647,N 43° 50.1346',W 120° 38.8193',718,61720,2829,-63640,-473,-496,0,4.49103e+269,2.99201e-312
00:04:15:242,,7375.43,-105.498,65653.1,43.8355,-120.647,N 43° 50.1327',W 120° 38.8221',1583,62261,3928,865,541,1099,0,4.49103e+269,2.99201e-312
00:04:16:256,,7277.36,-98.0667,13447.9,43.8356,-120.647,N 43° 50.1363',W 120° 38.8266',1049,63279,4480,-534,1018,552,0,4.49103e+269,2.99201e-312
00:04:17:269,,7174.51,-102.857,12290.2,43.8357,-120.647,N 43° 50.1414',W 120° 38.8224',198,63542,4548,-851,263,68,0,4.49103e+269,2.99201e-312
00:04:18:282,,7074.72,-99.7859,66626.2,43.8357,-120.647,N 43° 50.1426',W 120° 38.8129',64700,62832,4046,64502,-710,-502,0,4.49103e+269,2.99201e-312
00:04:19:295,,6970.97,-103.754,12900.7,43.8357,-120.647,N 43° 50.1399',W 120° 38.8068',64241,63024,3311,-459,192,-735,0,4.49103e+269,2.99201e-312
00:04:20:308,,6873.38,-97.5898,65820.1,43.8356,-120.647,N 43° 50.1365',W 120° 38.8079',64127,62011,3242,-114,-1013,-69,0,4.49103e+269,2.99201e-312
00:04:21:321,,6096.53,-776.843,65401.7,43.8356,-120.647,N 43° 50.137',W 120° 38.8126',64381,60833,3668,254,-1178,426,0,4.49103e+269,2.99201e-312
00:04:22:334,,5996.7,-99.8347,66022.9,43.8357,-120.647,N 43° 50.1402',W 120° 38.8155',149,61278,2791,-64232,445,-877,0,4.49103e+269,2.99201e-312
00:04:23:347,,5896.43,-100.274,64707.7,43.8357,-120.647,N 43° 50.1447',W 120° 38.81',555,61691,2865,406,413,74,0,4.49103e+269,2.99201e-312
00:04:24:360,,5800.97,-95.4547,65782.3,43.8357,-120.647,N 43° 50.1449',W 120° 38.8043',1517,62700,3134,962,1009,269,0,4.49103e+269,2.99201e-312
00:04:25:373,,5694.96,-106.016,66499,43.8357,-120.647,N 43° 50.1417',W 120° 38.8061',1228,63674,3631,-289,974,497,0,4.49103e+269,2.99201e-312
00:04:26:386,,5611.67,-83.2901,13646.5,43.8357,-120.647,N 43° 50.1416',W 120° 38.8122',839,63655,4024,-389,-19,393,0,4.49103e+269,2.99201e-312
00:04:27:399,,5520.78,-90.884,12223.9,43.8358,-120.647,N 43° 50.1456',W 120° 38.814',64807,64450,4930,63968,795,906,0,4.49103e+269,2.99201e-312
00:04:28:412,,5412.73,-108.052,13230.1,43.8358,-120.647,N 43° 50.1499',W 120° 38.8085',64174,63125,3809,-633,-1325,-1121,0,4.49103e+269,2.99201e-312
00:04:29:425,,5316.13,-96.6008,66048.7,43.8358,-120.647,N 43° 50.1503',W 120° 38.801',62959,62518,3852,-1215,-607,43,0,4.49103e+269,2.99201e-312
00:04:30:438,,5219.08,-97.0453,65535,43.8358,-120.647,N 43° 50.1473',W 120° 38.7968',63921,61375,2167,962,-1143,-1685,0,4.49103e+269,2.99201e-312
00:04:31:451,,5123.8,-95.2812,65024.7,43.8358,-120.647,N 43° 50.1467',W 120° 38.7983',64819,61376,2322,898,1,155,0,4.49103e+269,2.99201e-312
00:04:32:464,,5403.83,280.032,65549.3,43.8358,-120.647,N 43° 50.1491',W 120° 38.7978',889,62073,2861,-63930,697,539,0,4.49103e+269,2.99201e-312
00:04:33:477,,5298.03,-105.809,66357.1,43.8359,-120.646,N 43° 50.1522',W 120° 38.7885',1750,62743,3906,861,670,1045,0,4.49103e+269,2.99201e-312
00:04:34:491,,5200.67,-97.3585,66144.7,43.8358,-120.646,N 43° 50.1497',W 120° 38.778',523,64347,4445,-1227,1604,539,0,4.49103e+269,2.99201e-312
00:04:35:504,,5110.58,-90.0861,66511,43.8357,-120.646,N 43° 50.1428',W 120° 38.7738',64675,63684,4369,64152,-663,-76,0,4.49103e+269,2.99201e-312
00:04:36:517,,5010.5,-100.083,65597.1,43.8356,-120.646,N 43° 50.1385',W 120° 38.7736',63208,62790,3928,-1467,-894,-441,0,4.49103e+269,2.99201e-312
00:04:37:530,,4904.89,-105.607,64962.3,43.8356,-120.646,N 43° 50.1351',W 120° 38.7753',63172,62170,3125,-36,-620,-803,0,4.49103e+269,2.99201e-312
00:04:38:544,,4796.36,-108.531,65245.9,43.8356,-120.646,N 43° 50.1363',W 120° 38.773',64663,61294,2423,1491,-876,-702,0,4.49103e+269,2.99201e-312
00:04:39:556,,4700.88,-95.479,64635.1,43.8356,-120.646,N 43° 50.1345',W 120° 38.764',534,61021,2592,-64129,-273,169,0,4.49103e+269,2.99201e-312
00:04:40:560,,4621.23,-79.6499,65628,43.8354,-120.646,N 43° 50.1268',W 120° 38.7566',2219,61401,3015,1685,380,423,0,4.49103e+269,2.99201e-312
00:04:41:566,,4508.61,-112.619,11952.7,43.8354,-120.646,N 43° 50.1212',W 120° 38.7587',2583,62675,3726,364,1274,711,0,4.49103e+269,2.99201e-312
00:04:42:579,,4413.27,-95.3438,66336.1,43.8353,-120.646,N 43° 50.1205',W 120° 38.7606',2217,63725,4370,-366,1050,644,0,4.49103e+269,2.99201e-312
00:04:43:592,,4317.13,-96.1354,11960.6,43.8354,-120.646,N 43° 50.1221',W 120° 38.7595',957,64530,5165,-1260,805,795,0,4.49103e+269,2.99201e-312
00:04:44:605,,4210.93,-106.202,65948.4,43.8354,-120.646,N 43° 50.122',W 120° 38.7526',64937,64495,4811,63980,-35,-354,0,4.49103e+269,2.99201e-312
00:04:45:618,,4112.2,-98.7348,66233.9,43.8353,-120.646,N 43° 50.1167',W 120° 38.7476',63627,63905,4219,-1310,-590,-592,0,4.49103e+269,2.99201e-312
00:04:46:631,,4013.76,-98.4321,65549.8,43.8352,-120.646,N 43° 50.1112',W 120° 38.7472',62993,63323,3861,-634,-582,-358,0,4.49103e+269,2.99201e-312
00:04:47:644,,3915.28,-98.4852,65893.1,43.8351,-120.646,N 43° 50.1076',W 120° 38.7498',62366,62825,3709,-627,-498,-152,0,4.49103e+269,2.99201e-312
00:04:48:657,,3811.8,-103.474,64995.5,43.8352,-120.646,N 43° 50.1108',W 120° 38.7492',63772,61295,2182,1406,-1530,-1527,0,4.49103e+269,2.99201e-312
00:04:49:670,,3721.32,-90.487,64573.5,43.8352,-120.646,N 43° 50.1108',W 120° 38.7428',1155,61386,1911,-62617,91,-271,0,4.49103e+269,2.99201e-312
00:04:50:683,,3626.18,-95.1416,64715.9,43.8351,-120.646,N 43° 50.1046',W 120° 38.7341',2606,62139,2809,1451,753,898,0,4.49103e+269,2.99201e-312
00:04:51:696,,3504.41,-121.764,66060.2,43.835,-120.646,N 43° 50.0996',W 120° 38.7341',2567,63125,3600,-39,986,791,0,4.49103e+269,2.99201e-312
00:04:52:710,,3406.77,-97.6382,11319.2,43.8349,-120.646,N 43° 50.0957',W 120° 38.7413',2787,64369,3485,220,1244,-115,0,4.49103e+269,2.99201e-312
00:04:53:723,,3319.15,-87.6225,65864.9,43.8349,-120.646,N 43° 50.0956',W 120° 38.7422',2402,64048,3092,-385,-321,-393,0,4.49103e+269,2.99201e-312
00:04:54:736,,3226.92,-92.2332,13436.6,43.8349,-120.646,N 43° 50.0921',W 120° 38.7374',637,63830,4300,-1765,-218,1208,0,4.49103e+269,2.99201e-312
00:04:55:749,,3120.1,-106.814,65795.5,43.8347,-120.645,N 43° 50.0847',W 120° 38.7296',64256,63998,4748,63619,168,448,0,4.49103e+269,2.99201e-312
00:04:56:762,,3009.86,-110.245,65865.7,43.8346,-120.645,N 43° 50.0752',W 120° 38.7299',63367,63370,3740,-889,-628,-1008,0,4.49103e+269,2.99201e-312
00:04:57:775,,2904.44,-105.415,65128.1,43.8345,-120.646,N 43° 50.0692',W 120° 38.7331',62492,62638,3360,-875,-732,-380,0,4.49103e+269,2.99201e-312
00:04:58:788,,2801.08,-103.364,65593.9,43.8345,-120.646,N 43° 50.0671',W 120° 38.7361',63299,61476,2317,807,-1162,-1043,0,4.49103e+269,2.99201e-312
00:04:59:801,,2709.29,-91.7928,65615.2,43.8344,-120.646,N 43° 50.0668',W 120° 38.7302',65048,61394,1639,1749,-82,-678,0,4.49103e+269,2.99201e-312
00:05:00:814,,2620.13,-89.1551,65907,43.8343,-120.645,N 43° 50.0605',W 120° 38.7251',1523,61553,1936,-63525,159,297,0,4.49103e+269,2.99201e-312
00:05:01:827,,2503.44,-116.688,65917.8,43.8342,-120.645,N 43° 50.0532',W 120° 38.7252',2154,62230,3284,631,677,1348,0,4.49103e+269,2.99201e-312
00:05:02:840,,2408.77,-94.6701,66291,43.8341,-120.645,N 43° 50.0477',W 120° 38.7285',2010,63464,4173,-144,1234,889,0,4.49103e+269,2.99201e-312
00:05:03:853,,2303.94,-104.829,66585.6,43.8341,-120.646,N 43° 50.0471',W 120° 38.7305',468,63881,4957,-1542,417,784,0,4.49103e+269,2.99201e-312
00:05:04:866,,2224.29,-79.6597,66729.7,43.8341,-120.645,N 43° 50.0452',W 120° 38.7231',64135,62540,4298,63667,-1341,-659,0,4.49103e+269,2.99201e-312
00:05:05:879,,2116.03,-108.253,66084.6,43.834,-120.645,N 43° 50.0394',W 120° 38.7164',62759,62770,4590,-1376,230,292,0,4.49103e+269,2.99201e-312
00:05:06:892,,2007.47,-108.561,65742,43.8339,-120.645,N 43° 50.033',W 120° 38.7105',62688,63387,4598,-71,617,8,0,4.49103e+269,2.99201e-312
00:05:07:905,,1922.21,-85.259,66084.5,43.8338,-120.645,N 43° 50.0253',W 120° 38.7151',61966,61747,4010,-722,-1640,-588,0,4.49103e+269,2.99201e-312
00:05:08:918,,1819.27,-102.946,13170.3,43.8337,-120.645,N 43° 50.0232',W 120° 38.7166',61415,61140,3841,-551,-607,-169,0,4.49103e+269,2.99201e-312
00:05:09:932,,1743.1,-76.17,66742.8,43.8337,-120.645,N 43° 50.0229',W 120° 38.7121',61230,61456,3497,-185,316,-344,0,4.49103e+269,2.99201e-312
00:05:10:940,,1641.37,-101.724,66159.7,43.8337,-120.645,N 43° 50.0195',W 120° 38.7049',61641,61533,2768,411,77,-729,0,4.49103e+269,2.99201e-312
00:05:11:941,,1543.91,-97.4635,14140,43.8335,-120.645,N 43° 50.0116',W 120° 38.6989',62164,62320,3080,523,787,312,0,4.49103e+269,2.99201e-312
00:05:12:954,,1450.34,-93.5679,12435.3,43.8334,-120.645,N 43° 50.0035',W 120° 38.6975',62075,62590,4302,-89,270,1222,0,4.49103e+269,2.99201e-312
00:05:13:967,,1372.73,-77.6059,14847.5,43.8334,-120.645,N 43° 50.0014',W 120° 38.7',62270,62157,3445,195,-433,-857,0,4.49103e+269,2.99201e-312
00:05:14:980,,1279.65,-93.0806,64888.5,43.8333,-120.645,N 43° 49.9988',W 120° 38.6967',64257,61268,1418,1987,-889,-2027,0,4.49103e+269,2.99201e-312
00:05:15:993,,1181.31,-98.3451,65913.8,43.8332,-120.645,N 43° 49.9946',W 120° 38.6892',65196,62256,2268,939,988,850,0,4.49103e+269,2.99201e-312
00:05:17:006,,1093.63,-87.6754,65984.3,43.8331,-120.645,N 43° 49.9844',W 120° 38.6813',1075,61734,3137,-64121,-522,869,0,4.49103e+269,2.99201e-312
00:05:18:019,,1001.02,-92.6162,66217.5,43.8328,-120.645,N 43° 49.9708',W 120° 38.6851',2500,62210,2922,1425,476,-215,0,4.49103e+269,2.99201e-312
00:05:19:032,,908.339,-92.6782,66409.7,43.8328,-120.645,N 43° 49.9656',W 120° 38.6895',2856,63470,3790,356,1260,868,0,4.49103e+269,2.99201e-312
00:05:20:045,,779.926,-128.413,66693.6,43.8327,-120.645,N 43° 49.9619',W 120° 38.6903',2816,1573,1484,-40,-61897,-2306,0,4.49103e+269,2.99201e-312
00:05:21:058,,741.404,-38.5224,64297.2,43.8326,-120.645,N 43° 49.9545',W 120° 38.686',337,60376,1060,-2479,58803,-424,0,4.49103e+269,2.99201e-312
00:05:22:071,,621.951,-119.453,65055.8,43.8325,-120.645,N 43° 49.9472',W 120° 38.6876',63104,62521,3331,62767,2145,2271,0,4.49103e+269,2.99201e-312
00:05:23:084,,549.146,-72.8042,64678.2,43.8324,-120.645,N 43° 49.944',W 120° 38.6868',62968,61047,3320,-136,-1474,-11,0,4.49103e+269,2.99201e-312
00:05:24:097,,456.14,-93.0061,65837.6,43.8323,-120.645,N 43° 49.9386',W 120° 38.6791',62564,62737,3003,-404,1690,-317,0,4.49103e+269,2.99201e-312
00:05:25:110,,367.519,-88.621,66442.4,43.8322,-120.644,N 43° 49.9311',W 120° 38.6697',62165,62128,3761,-399,-609,758,0,4.49103e+269,2.99201e-312
00:05:26:123,,260.792,-106.727,64861.3,43.832,-120.644,N 43° 49.9228',W 120° 38.6662',62911,62156,3108,746,28,-653,0,4.49103e+269,2.99201e-312
00:05:27:137,,165.756,-95.0354,64993.1,43.832,-120.644,N 43° 49.9176',W 120° 38.6675',63191,63588,3651,280,1432,543,0,4.49103e+269,2.99201e-312
00:05:28:151,,72.5656,-93.1908,66187.4,43.8319,-120.644,N 43° 49.9159',W 120° 38.6631',63229,63183,4186,38,-405,535,0,4.49103e+269,2.99201e-312
00:05:29:163,,-42.9282,-115.494,66395.8,43.8319,-120.644,N 43° 49.9121',W 120° 38.6546',62812,63065,4850,-417,-118,664,0,4.49103e+269,2.99201e-312
00:05:30:177,,-135.221,-92.293,66275.7,43.8317,-120.644,N 43° 49.9045',W 120° 38.6463',62875,64407,4424,63,1342,-426,0,4.49103e+269,2.99201e-312
00:05:31:189,,-228.815,-93.5941,63714.9,43.8316,-120.644,N 43° 49.897',W 120° 38.6451',65104,63288,5075,2229,-1119,651,0,4.49103e+269,2.99201e-312
00:05:32:202,Landing,-350.094,-121.278,66311.4,43.8315,-120.644,N 43° 49.8905',W 120° 38.6436',63127,62848,4693,-1977,-440,-382,0,4.49103e+269,2.99201e-312
00:05:33:215,,-454.534,-104.441,65888.7,43.8315,-120.644,N 43° 49.8887',W 120° 38.6427',63201,63656,4271,74,808,-422,0,4.49103e+269,2.99201e-312
00:05:34:228,,-454.534,-104.441,65888.7,GPS ERROR,GPS ERROR,N 43° 49.8887',W 120° 38.6427',63201,63656,4271,74,808,-422,0,4.49103e+269,2.99201e-312
00:05:35:241,,-454.534,-104.441,65888.7,GPS ERROR,GPS ERROR,N 43° 49.8887',W 120° 38.6427',63201,63656,4271,74,808,-422,0,4.49103e+269,2.99201e-312
00:05:36:254,,-454.534,-104.441,65888.7,GPS ERROR,GPS ERROR,N 43° 49.8887',W 120° 38.6427',63201,63656,4271,74,808,-422,0,4.49103e+269,2.99201e-312
00:05:37:267,,-454.534,-104.441,65888.7,GPS ERROR,GPS ERROR,N 43° 49.8887',W 120° 38.6427',63201,63656,4271,74,808,-422,0,4.49103e+269,2.99201e-312
00:05:38:280,,-454.534,-104.441,65888.7,GPS ERROR,GPS ERROR,N 43° 49.8887',W 120° 38.6427',63201,63656,4271,74,808,-422,0,4.49103e+269,2.99201e-312
00:05:39:293,,-454.534,-104.441,65888.7,GPS ERROR,GPS ERROR,N 43° 49.8887',W 120° 38.6427',63201,63656,4271,74,808,-422,0,4.49103e+269,2.99201e-312
00:05:40:306,,-454.534,-104.441,65888.7,GPS ERROR,GPS ERROR,N 43° 49.8887',W 120° 38.6427',63201,63656,4271,74,808,-422,0,4.49103e+269,2.99201e-312
