Time----------,Event----------,Altitude----------,Velocity----------,Acceleration----------,Latitude----------,Longitude----------,GyroX----------,GyroY----------,GyroZ----------,Pitch Rate----------,Roll Rate----------,Yaw Rate----------,MagX----------,MagY----------,MagZ----------
00:00:01:017,,-423.268,0,91170.5,43.7957,-120.652,0,0,0,0,0,0,0,6.68902e-198,1.78733e-306
00:00:02:025,,-422.958,0.309719,91179.7,43.7957,-120.652,0,0,0,0,0,0,0,6.68902e-198,1.78733e-306
00:00:03:033,,-423.887,-0.929149,112303,43.7957,-120.652,0,0,0,0,0,0,0,6.68902e-198,1.78733e-306
00:00:04:046,,-423.268,0.61943,91187.6,43.7957,-120.652,0,0,0,0,0,0,0,6.68902e-198,1.78733e-306
00:00:05:055,,-422.029,1.23889,91192.6,43.7957,-120.652,0,0,0,0,0,0,0,6.68902e-198,1.78733e-306
00:00:06:072,,-422.958,-0.929175,91166,43.7957,-120.652,0,0,0,0,0,0,0,6.68902e-198,1.78733e-306
00:00:07:084,,-423.268,-0.309719,91177.6,43.7957,-120.652,0,0,0,0,0,0,0,6.68902e-198,1.78733e-306
00:00:08:098,,-422.029,1.23889,91179,43.7957,-120.652,0,0,0,0,0,0,0,6.68902e-198,1.78733e-306
00:00:09:110,,-422.958,-0.929175,91192.8,43.7957,-120.652,0,0,0,0,0,0,0,6.68902e-198,1.78733e-306
00:00:10:113,,-422.958,0,91174.7,43.7957,-120.652,0,0,0,0,0,0,0,6.68902e-198,1.78733e-306
00:00:11:120,,-422.339,0.619447,91184.6,43.7957,-120.652,0,0,0,0,0,0,0,6.68902e-198,1.78733e-306
00:00:12:133,,-423.577,-1.23888,91197.7,43.7957,-120.652,0,0,0,0,0,0,0,6.68902e-198,1.78733e-306
00:00:13:147,,-424.816,-1.23884,91202.7,43.7957,-120.652,0,0,0,0,0,0,0,6.68902e-198,1.78733e-306
00:00:14:164,,-423.577,1.23884,91181.1,43.7957,-120.652,0,0,0,0,0,0,0,6.68902e-198,1.78733e-306
00:00:15:182,,-418.312,5.26557,39361.5,43.7957,-120.652,0,0,0,0,0,0,0,6.68902e-198,1.78733e-306
00:00:16:186,Launch,-204.506,213.806,76008.6,43.7958,-120.651,0,0,0,0,0,0,0,6.68902e-198,1.78733e-306
00:00:17:200,,258.895,463.401,75451.4,43.7958,-120.651,0,0,0,0,0,0,0,6.68902e-198,1.78733e-306
00:00:18:220,,1005.87,746.973,77178.9,43.7959,-120.651,0,0,0,0,0,0,0,6.68902e-198,1.78733e-306
00:00:19:226,,1944.5,938.636,80666.5,GPS ERROR,GPS ERROR,0,0,0,0,0,0,0,6.68902e-198,1.78733e-306
00:00:20:237,,2700.09,755.584,86280.1,GPS ERROR,GPS ERROR,0,0,0,0,0,0,0,6.68902e-198,1.78733e-306
00:00:21:251,,3557.89,857.802,111782,GPS ERROR,GPS ERROR,0,0,0,0,0,0,0,6.68902e-198,1.78733e-306
00:00:22:263,,4687.11,1129.22,91962.3,GPS ERROR,GPS ERROR,0,0,0,0,0,0,0,6.68902e-198,1.78733e-306
00:00:23:267,,6003.12,1316.01,92102.1,GPS ERROR,GPS ERROR,0,0,0,0,0,0,0,6.68902e-198,1.78733e-306
00:00:24:273,,7417.27,1414.15,64750.9,GPS ERROR,GPS ERROR,0,0,0,0,0,0,0,6.68902e-198,1.78733e-306
00:00:25:289,,8894.57,1477.3,64655.7,GPS ERROR,GPS ERROR,0,0,0,0,0,0,0,6.68902e-198,1.78733e-306
00:00:26:299,,10350.6,1456.06,64864.6,GPS ERROR,GPS ERROR,0,0,0,0,0,0,0,6.68902e-198,1.78733e-306
00:00:27:304,,11820.1,1469.44,92375.5,GPS ERROR,GPS ERROR,0,0,0,0,0,0,0,6.68902e-198,1.78733e-306
00:00:28:316,,13273.5,1453.39,92374.6,GPS ERROR,GPS ERROR,0,0,0,0,0,0,0,6.68902e-198,1.78733e-306
00:00:29:333,,14721.6,1448.11,92373,GPS ERROR,GPS ERROR,0,0,0,0,0,0,0,6.68902e-198,1.78733e-306
00:00:30:335,,16126.5,1404.95,92440.8,GPS ERROR,GPS ERROR,0,0,0,0,0,0,0,6.68902e-198,1.78733e-306
00:00:31:349,,17441.5,1315.03,92456.9,GPS ERROR,GPS ERROR,0,0,0,0,0,0,0,6.68902e-198,1.78733e-306
00:00:32:361,,18690,1248.43,92414.6,GPS ERROR,GPS ERROR,0,0,0,0,0,0,0,6.68902e-198,1.78733e-306
00:00:33:362,,19757.8,1067.8,92397.8,43.7922,-120.654,0,0,0,0,0,0,0,6.68902e-198,1.78733e-306
00:00:34:370,,20750.7,992.967,65152.7,GPS ERROR,GPS ERROR,0,0,0,0,0,0,0,6.68902e-198,1.78733e-306
00:00:35:383,,21857.7,1106.96,65156.9,GPS ERROR,GPS ERROR,0,0,0,0,0,0,0,6.68902e-198,1.78733e-306
00:00:36:397,,22837.9,980.17,65116.8,GPS ERROR,GPS ERROR,0,0,0,0,0,0,0,6.68902e-198,1.78733e-306
00:00:37:419,,23744.3,906.406,91939.9,43.7916,-120.654,0,0,0,0,0,0,0,6.68902e-198,1.78733e-306
00:00:38:424,,24610.4,866.141,92395.4,GPS ERROR,GPS ERROR,0,0,0,0,0,0,0,6.68902e-198,1.78733e-306
00:00:39:436,,25498.4,887.928,92385.7,GPS ERROR,GPS ERROR,0,0,0,0,0,0,0,6.68902e-198,1.78733e-306
00:00:40:449,,26475,976.608,64679.7,GPS ERROR,GPS ERROR,0,0,0,0,0,0,0,6.68902e-198,1.78733e-306
00:00:41:461,,27206.8,731.818,64775.2,43.7913,-120.654,0,0,0,0,0,0,0,6.68902e-198,1.78733e-306
00:00:42:475,,27836.4,629.569,65051.9,GPS ERROR,GPS ERROR,0,0,0,0,0,0,0,6.68902e-198,1.78733e-306
00:00:43:476,,28451.7,615.329,65254.7,GPS ERROR,GPS ERROR,0,0,0,0,0,0,0,6.68902e-198,1.78733e-306
00:00:44:493,,29006.2,554.523,65359.4,GPS ERROR,GPS ERROR,0,0,0,0,0,0,0,6.68902e-198,1.78733e-306
00:00:45:516,,29556.4,550.23,65374.3,43.7909,-120.654,0,0,0,0,0,0,0,6.68902e-198,1.78733e-306
00:00:46:528,,29998.2,441.719,65430.2,GPS ERROR,GPS ERROR,0,0,0,0,0,0,0,6.68902e-198,1.78733e-306
00:00:47:549,,30440.4,442.266,65448.2,GPS ERROR,GPS ERROR,0,0,0,0,0,0,0,6.68902e-198,1.78733e-306
00:00:48:554,,30837.3,396.866,65466.1,GPS ERROR,GPS ERROR,0,0,0,0,0,0,0,6.68902e-198,1.78733e-306
00:00:49:567,,31190.2,352.901,92607,GPS ERROR,GPS ERROR,0,0,0,0,0,0,0,6.68902e-198,1.78733e-306
00:00:50:580,,31549.8,359.654,92643,GPS ERROR,GPS ERROR,0,0,0,0,0,0,0,6.68902e-198,1.78733e-306
00:00:51:593,,31807.1,257.217,92640.2,GPS ERROR,GPS ERROR,0,0,0,0,0,0,0,6.68902e-198,1.78733e-306
00:00:52:596,,32048,240.979,92638.1,GPS ERROR,GPS ERROR,0,0,0,0,0,0,0,6.68902e-198,1.78733e-306
00:00:53:604,,32294.2,246.128,92650.1,GPS ERROR,GPS ERROR,0,0,0,0,0,0,0,6.68902e-198,1.78733e-306
00:00:54:623,,32488,193.835,92645.8,GPS ERROR,GPS ERROR,0,0,0,0,0,0,0,6.68902e-198,1.78733e-306
00:00:55:628,,32588.8,100.842,92651.5,GPS ERROR,GPS ERROR,0,0,0,0,0,0,0,6.68902e-198,1.78733e-306
00:00:56:633,,32692,103.176,92639.5,GPS ERROR,GPS ERROR,0,0,0,0,0,0,0,6.68902e-198,1.78733e-306
00:00:57:640,,32749.1,57.0714,92623.9,GPS ERROR,GPS ERROR,0,0,0,0,0,0,0,6.68902e-198,1.78733e-306
00:00:58:650,,32789.8,40.7055,65451,GPS ERROR,GPS ERROR,0,0,0,0,0,0,0,6.68902e-198,1.78733e-306
00:00:59:663,,32804.3,14.5535,4636.58,GPS ERROR,GPS ERROR,0,0,0,0,0,0,0,6.68902e-198,1.78733e-306
00:01:00:676,Apogee,32763.6,-40.7288,90894.8,GPS ERROR,GPS ERROR,0,0,0,0,0,0,0,6.68902e-198,1.78733e-306
00:01:01:692,,32862.6,99.0265,87436.7,GPS ERROR,GPS ERROR,0,0,0,0,0,0,0,6.68902e-198,1.78733e-306
00:01:02:700,Apogee,32655.3,-207.318,89450.4,43.79,-120.654,0,0,0,0,0,0,0,6.68902e-198,1.78733e-306
00:01:03:718,,32635.1,-20.2534,82248.8,43.79,-120.654,0,0,0,0,0,0,0,6.68902e-198,1.78733e-306
00:01:04:724,,32553.3,-81.8134,68080.9,43.79,-120.654,0,0,0,0,0,0,0,6.68902e-198,1.78733e-306
00:01:05:737,,32463.1,-90.1704,63254.5,43.7901,-120.654,0,0,0,0,0,0,0,6.68902e-198,1.78733e-306
00:01:06:754,,32274.2,-188.895,64292.5,43.7902,-120.654,0,0,0,0,0,0,0,6.68902e-198,1.78733e-306
00:01:07:768,,32048,-226.16,7959.92,43.7903,-120.654,0,0,0,0,0,0,0,6.68902e-198,1.78733e-306
00:01:08:782,,32003.8,-44.2402,56865.4,43.7904,-120.654,0,0,0,0,0,0,0,6.68902e-198,1.78733e-306
00:01:09:794,,31851.9,-151.903,63373.7,43.7905,-120.654,0,0,0,0,0,0,0,6.68902e-198,1.78733e-306
00:01:10:813,,31653.5,-198.362,9057.65,43.7908,-120.654,0,0,0,0,0,0,0,6.68902e-198,1.78733e-306
00:01:11:820,,31571.1,-82.431,64341,43.791,-120.654,0,0,0,0,0,0,0,6.68902e-198,1.78733e-306
00:01:12:834,,31606.3,35.1629,61872.4,43.7913,-120.654,0,0,0,0,0,0,0,6.68902e-198,1.78733e-306
00:01:13:848,,31282.4,-323.89,65394.1,GPS ERROR,GPS ERROR,0,0,0,0,0,0,0,6.68902e-198,1.78733e-306
00:01:14:868,,31113.8,-168.605,61966.1,43.7918,-120.654,0,0,0,0,0,0,0,6.68902e-198,1.78733e-306
00:01:15:872,,30910.2,-203.583,89957.8,43.792,-120.654,0,0,0,0,0,0,0,6.68902e-198,1.78733e-306
00:01:16:885,,30743.1,-167.091,63541,43.7924,-120.654,0,0,0,0,0,0,0,6.68902e-198,1.78733e-306
00:01:17:899,,30876.9,133.767,7968.12,43.7927,-120.654,0,0,0,0,0,0,0,6.68902e-198,1.78733e-306
00:01:18:902,,30539.7,-337.126,61978.2,43.7929,-120.654,0,0,0,0,0,0,0,6.68902e-198,1.78733e-306
00:01:19:915,,30406.8,-132.923,67390,43.7932,-120.654,0,0,0,0,0,0,0,6.68902e-198,1.78733e-306
00:01:20:931,,30227.1,-179.689,65725.5,43.7936,-120.654,0,0,0,0,0,0,0,6.68902e-198,1.78733e-306
00:01:21:936,,30069.6,-157.523,13364.1,43.794,-120.654,0,0,0,0,0,0,0,6.68902e-198,1.78733e-306
00:01:22:949,,29906.1,-163.511,11366.1,43.7943,-120.654,0,0,0,0,0,0,0,6.68902e-198,1.78733e-306
00:01:23:962,,29769.5,-136.629,66016.8,43.7946,-120.654,0,0,0,0,0,0,0,6.68902e-198,1.78733e-306
00:01:24:977,,29601,-168.501,65292,43.7949,-120.654,0,0,0,0,0,0,0,6.68902e-198,1.78733e-306
00:01:25:987,,29439.5,-161.46,65521.8,43.7952,-120.654,0,0,0,0,0,0,0,6.68902e-198,1.78733e-306
00:01:27:000,,29299.3,-140.146,66036.5,43.7956,-120.654,0,0,0,0,0,0,0,6.68902e-198,1.78733e-306
00:01:28:013,,29159.1,-140.243,64900.9,43.796,-120.654,0,0,0,0,0,0,0,6.68902e-198,1.78733e-306
00:01:29:124,,29017.1,-142.011,65636.6,43.7963,-120.654,0,0,0,0,0,0,0,6.68902e-198,1.78733e-306
00:01:30:222,,28859.2,-157.912,65336.9,43.7966,-120.654,0,0,0,0,0,0,0,6.68902e-198,1.78733e-306
00:01:31:310,,28713.8,-145.374,12488.7,43.7969,-120.654,0,0,0,0,0,0,0,6.68902e-198,1.78733e-306
00:01:32:314,,28575.8,-137.984,12030.4,43.7972,-120.654,0,0,0,0,0,0,0,6.68902e-198,1.78733e-306
00:01:33:327,,28414,-161.848,13463,43.7976,-120.654,0,0,0,0,0,0,0,6.68902e-198,1.78733e-306
00:01:34:328,,28283.3,-130.724,66097,43.798,-120.654,0,0,0,0,0,0,0,6.68902e-198,1.78733e-306
00:01:35:337,,28151.6,-131.702,65942.5,43.7983,-120.654,0,0,0,0,0,0,0,6.68902e-198,1.78733e-306
00:01:36:350,,27989,-162.502,65473.3,43.7985,-120.654,0,0,0,0,0,0,0,6.68902e-198,1.78733e-306
00:01:37:364,,27869.2,-119.822,13756.6,43.7989,-120.654,0,0,0,0,0,0,0,6.68902e-198,1.78733e-306
00:01:38:366,,27726.8,-142.437,66028.6,43.7993,-120.654,0,0,0,0,0,0,0,6.68902e-198,1.78733e-306
00:01:39:375,,27580.4,-146.439,13329.7,43.7997,-120.654,0,0,0,0,0,0,0,6.68902e-198,1.78733e-306
00:01:40:386,,27424.5,-155.897,66337.1,43.8,-120.654,0,0,0,0,0,0,0,6.68902e-198,1.78733e-306
00:01:41:400,,27282,-142.435,66458.5,43.8003,-120.654,0,0,0,0,0,0,0,6.68902e-198,1.78733e-306
00:01:42:402,,27126.3,-155.726,66146.1,43.8006,-120.654,0,0,0,0,0,0,0,6.68902e-198,1.78733e-306
00:01:43:411,,26975.3,-150.944,66490.8,43.8011,-120.654,0,0,0,0,0,0,0,6.68902e-198,1.78733e-306
00:01:44:425,,26845.3,-130.029,65022.8,43.8015,-120.654,0,0,0,0,0,0,0,6.68902e-198,1.78733e-306
00:01:45:431,,26711.3,-134.011,65569.1,43.8018,-120.654,0,0,0,0,0,0,0,6.68902e-198,1.78733e-306
00:01:46:435,,26578,-133.344,65815.9,43.8021,-120.654,0,0,0,0,0,0,0,6.68902e-198,1.78733e-306
00:01:47:444,,26419.4,-158.535,65117.1,43.8024,-120.654,0,0,0,0,0,0,0,6.68902e-198,1.78733e-306
00:01:48:457,,26283.7,-135.686,64767.1,43.8028,-120.654,0,0,0,0,0,0,0,6.68902e-198,1.78733e-306
00:01:49:470,,26142,-141.775,65359.6,43.8032,-120.654,0,0,0,0,0,0,0,6.68902e-198,1.78733e-306
00:01:50:502,,26015.2,-126.813,64870.9,43.8035,-120.654,0,0,0,0,0,0,0,6.68902e-198,1.78733e-306
00:01:51:517,,25872.5,-142.606,65310,43.8038,-120.654,0,0,0,0,0,0,0,6.68902e-198,1.78733e-306
00:01:52:530,,25725.5,-147.042,64915.9,43.8041,-120.654,0,0,0,0,0,0,0,6.68902e-198,1.78733e-306
00:01:53:538,,25589.6,-135.931,65882.1,43.8044,-120.654,0,0,0,0,0,0,0,6.68902e-198,1.78733e-306
00:01:54:551,,25440.4,-149.18,66171.3,43.8048,-120.654,0,0,0,0,0,0,0,6.68902e-198,1.78733e-306
00:01:55:565,,25302.2,-138.157,12880.8,43.8051,-120.654,0,0,0,0,0,0,0,6.68902e-198,1.78733e-306
00:01:56:578,,25181.5,-120.766,66058.1,43.8055,-120.654,0,0,0,0,0,0,0,6.68902e-198,1.78733e-306
00:01:57:592,,25036.7,-144.792,66790.6,43.8057,-120.654,0,0,0,0,0,0,0,6.68902e-198,1.78733e-306
00:01:58:607,,24896.2,-140.434,65870.2,43.806,-120.654,0,0,0,0,0,0,0,6.68902e-198,1.78733e-306
00:01:59:609,,24763.7,-132.565,66289.4,43.8063,-120.655,0,0,0,0,0,0,0,6.68902e-198,1.78733e-306
00:02:00:613,,24631.8,-131.924,64847.3,43.8067,-120.655,0,0,0,0,0,0,0,6.68902e-198,1.78733e-306
00:02:01:638,,24504.7,-127.041,13122.9,43.807,-120.655,0,0,0,0,0,0,0,6.68902e-198,1.78733e-306
00:02:02:644,,24383.9,-120.813,65098,43.8072,-120.655,0,0,0,0,0,0,0,6.68902e-198,1.78733e-306
00:02:03:660,,24280.5,-103.432,64880.3,43.8075,-120.655,0,0,0,0,0,0,0,6.68902e-198,1.78733e-306
00:02:04:662,,24088,-192.452,65835.2,43.8077,-120.655,0,0,0,0,0,0,0,6.68902e-198,1.78733e-306
00:02:05:663,,23970.4,-117.604,63591.2,43.8081,-120.655,0,0,0,0,0,0,0,6.68902e-198,1.78733e-306
00:02:06:676,,23864.4,-106.037,65737.4,43.8084,-120.655,0,0,0,0,0,0,0,6.68902e-198,1.78733e-306
00:02:07:677,,23684.4,-179.946,65640.4,43.8087,-120.655,0,0,0,0,0,0,0,6.68902e-198,1.78733e-306
00:02:08:701,,23587,-97.4095,66037,43.8089,-120.655,0,0,0,0,0,0,0,6.68902e-198,1.78733e-306
00:02:09:703,,23419.8,-167.26,66250.2,43.8091,-120.655,0,0,0,0,0,0,0,6.68902e-198,1.78733e-306
00:02:10:719,,23303.6,-116.142,66027.7,43.8095,-120.655,0,0,0,0,0,0,0,6.68902e-198,1.78733e-306
00:02:11:724,,23150.9,-152.751,13238.3,43.8098,-120.655,0,0,0,0,0,0,0,6.68902e-198,1.78733e-306
00:02:12:737,,23068.1,-82.7811,66095.9,43.8101,-120.655,0,0,0,0,0,0,0,6.68902e-198,1.78733e-306
00:02:13:751,,22918,-150.122,65802.3,43.8103,-120.655,0,0,0,0,0,0,0,6.68902e-198,1.78733e-306
00:02:14:973,,22798.6,-119.381,66746,43.8105,-120.655,0,0,0,0,0,0,0,6.68902e-198,1.78733e-306
00:02:15:978,,22620.8,-177.783,12420.4,43.8108,-120.655,0,0,0,0,0,0,0,6.68902e-198,1.78733e-306
00:02:16:986,,22512.6,-108.233,66092,43.8111,-120.655,0,0,0,0,0,0,0,6.68902e-198,1.78733e-306
00:02:18:097,,22382.5,-130.113,65636.7,43.8115,-120.655,0,0,0,0,0,0,0,6.68902e-198,1.78733e-306
00:02:19:098,,22247.7,-134.727,64678.2,43.8117,-120.655,0,0,0,0,0,0,0,6.68902e-198,1.78733e-306
00:02:20:114,,22123.4,-124.337,65102.3,43.8119,-120.655,0,0,0,0,0,0,0,6.68902e-198,1.78733e-306
00:02:21:127,,22013.8,-109.554,66075.1,43.8122,-120.655,0,0,0,0,0,0,0,6.68902e-198,1.78733e-306
00:02:22:138,,21856.4,-157.418,65575.6,43.8126,-120.655,0,0,0,0,0,0,0,6.68902e-198,1.78733e-306
00:02:23:153,,21730.6,-125.811,65534.8,43.8129,-120.655,0,0,0,0,0,0,0,6.68902e-198,1.78733e-306
00:02:24:163,,21600.9,-129.711,12910.5,43.8132,-120.655,0,0,0,0,0,0,0,6.68902e-198,1.78733e-306
00:02:25:176,,21473.7,-127.209,65269.8,43.8134,-120.655,0,0,0,0,0,0,0,6.68902e-198,1.78733e-306
00:02:26:178,,21355.3,-118.42,12663.1,43.8136,-120.655,0,0,0,0,0,0,0,6.68902e-198,1.78733e-306
00:02:27:186,,21227.9,-127.36,13280.6,43.8138,-120.655,0,0,0,0,0,0,0,6.68902e-198,1.78733e-306
00:02:28:200,,21083,-144.94,66233.1,43.8142,-120.655,0,0,0,0,0,0,0,6.68902e-198,1.78733e-306
00:02:29:218,,20969.9,-113.048,65385.3,43.8144,-120.655,0,0,0,0,0,0,0,6.68902e-198,1.78733e-306
00:02:30:228,,20849.3,-120.665,66454.8,43.8147,-120.654,0,0,0,0,0,0,0,6.68902e-198,1.78733e-306
00:02:31:239,,20722.9,-126.33,65191.5,43.8149,-120.654,0,0,0,0,0,0,0,6.68902e-198,1.78733e-306
00:02:32:252,,20590.4,-132.532,66254.3,43.8151,-120.654,0,0,0,0,0,0,0,6.68902e-198,1.78733e-306
00:02:33:253,,20473.2,-117.218,66465.2,43.8155,-120.654,0,0,0,0,0,0,0,6.68902e-198,1.78733e-306
00:02:34:261,,20332.7,-140.511,64995,43.8158,-120.654,0,0,0,0,0,0,0,6.68902e-198,1.78733e-306
00:02:35:274,,20235.9,-96.7292,64698.8,43.8161,-120.654,0,0,0,0,0,0,0,6.68902e-198,1.78733e-306
00:02:36:287,,20139.5,-96.3999,65742.5,43.8163,-120.654,0,0,0,0,0,0,0,6.68902e-198,1.78733e-306
00:02:37:301,,19997.1,-142.482,65268,43.8165,-120.654,0,0,0,0,0,0,0,6.68902e-198,1.78733e-306
00:02:38:322,,19845.7,-151.356,65879.7,43.8169,-120.654,0,0,0,0,0,0,0,6.68902e-198,1.78733e-306
00:02:39:329,,19725.6,-120.149,66715.7,43.8172,-120.654,0,0,0,0,0,0,0,6.68902e-198,1.78733e-306
00:02:40:339,,19616.6,-108.95,12582.7,43.8175,-120.654,0,0,0,0,0,0,0,6.68902e-198,1.78733e-306
00:02:41:344,,19501.6,-115.045,66409.2,43.8178,-120.654,0,0,0,0,0,0,0,6.68902e-198,1.78733e-306
00:02:42:349,,19369.3,-132.26,13711.8,43.818,-120.654,0,0,0,0,0,0,0,6.68902e-198,1.78733e-306
00:02:43:353,,19272.3,-97.0329,65147.1,43.8182,-120.654,0,0,0,0,0,0,0,6.68902e-198,1.78733e-306
00:02:44:371,,19139.9,-132.373,13177.6,43.8186,-120.654,0,0,0,0,0,0,0,6.68902e-198,1.78733e-306
00:02:45:381,,19005.2,-134.67,13737.6,43.8189,-120.654,0,0,0,0,0,0,0,6.68902e-198,1.78733e-306
00:02:46:383,,18865.4,-139.828,66329,43.8191,-120.654,0,0,0,0,0,0,0,6.68902e-198,1.78733e-306
00:02:47:397,,18739.5,-125.898,13131.4,43.8193,-120.654,0,0,0,0,0,0,0,6.68902e-198,1.78733e-306
00:02:48:418,,18623.3,-116.166,66432,43.8195,-120.654,0,0,0,0,0,0,0,6.68902e-198,1.78733e-306
00:02:49:433,,18488.8,-134.555,65795.3,43.8198,-120.654,0,0,0,0,0,0,0,6.68902e-198,1.78733e-306
00:02:50:437,,18378.2,-110.606,64887.8,43.8201,-120.654,0,0,0,0,0,0,0,6.68902e-198,1.78733e-306
00:02:51:438,,18260.6,-117.551,65108.3,43.8204,-120.653,0,0,0,0,0,0,0,6.68902e-198,1.78733e-306
00:02:52:447,,18164.4,-96.1813,65600.6,43.8206,-120.653,0,0,0,0,0,0,0,6.68902e-198,1.78733e-306
00:02:53:460,,18048.9,-115.558,65535.5,43.8208,-120.653,0,0,0,0,0,0,0,6.68902e-198,1.78733e-306
00:02:54:473,,17897.9,-150.935,65494.2,43.821,-120.653,0,0,0,0,0,0,0,6.68902e-198,1.78733e-306
00:02:55:486,,17796.8,-101.116,13274.9,43.8213,-120.653,0,0,0,0,0,0,0,6.68902e-198,1.78733e-306
00:02:56:498,,17670,-126.871,66469.6,43.8216,-120.653,0,0,0,0,0,0,0,6.68902e-198,1.78733e-306
00:02:57:516,,17548.6,-121.341,12118.9,43.8218,-120.653,0,0,0,0,0,0,0,6.68902e-198,1.78733e-306
00:02:58:526,,17427.8,-120.835,66085.4,43.822,-120.653,0,0,0,0,0,0,0,6.68902e-198,1.78733e-306
00:02:59:538,,17312.4,-115.398,64412.6,43.8222,-120.654,0,0,0,0,0,0,0,6.68902e-198,1.78733e-306
00:03:00:550,,17189.2,-123.133,66547,43.8225,-120.654,0,0,0,0,0,0,0,6.68902e-198,1.78733e-306
00:03:01:564,,17094.9,-94.3216,12904.5,43.8227,-120.653,0,0,0,0,0,0,0,6.68902e-198,1.78733e-306
00:03:02:567,,16962.4,-132.513,65800.1,43.8229,-120.653,0,0,0,0,0,0,0,6.68902e-198,1.78733e-306
00:03:03:573,,16839.7,-122.741,66582.8,43.8231,-120.653,0,0,0,0,0,0,0,6.68902e-198,1.78733e-306
00:03:04:586,,16737.9,-101.801,12709.1,43.8232,-120.653,0,0,0,0,0,0,0,6.68902e-198,1.78733e-306
00:03:05:601,,16634.3,-103.59,12401.4,43.8235,-120.653,0,0,0,0,0,0,0,6.68902e-198,1.78733e-306
00:03:06:602,,16523.6,-110.696,11524.4,43.8237,-120.653,0,0,0,0,0,0,0,6.68902e-198,1.78733e-306
00:03:07:615,,16399,-124.632,12543.2,43.8239,-120.653,0,0,0,0,0,0,0,6.68902e-198,1.78733e-306
00:03:08:616,,16298.1,-100.807,12073.9,43.8241,-120.653,0,0,0,0,0,0,0,6.68902e-198,1.78733e-306
00:03:09:619,,16164.5,-133.695,66637.9,43.8242,-120.653,0,0,0,0,0,0,0,6.68902e-198,1.78733e-306
00:03:10:631,,16053.4,-111.036,66333.6,43.8244,-120.653,0,0,0,0,0,0,0,6.68902e-198,1.78733e-306
00:03:11:633,,15933.4,-120.034,13068.8,43.8247,-120.653,0,0,0,0,0,0,0,6.68902e-198,1.78733e-306
00:03:12:642,,15829,-104.432,66622.7,43.8249,-120.653,0,0,0,0,0,0,0,6.68902e-198,1.78733e-306
00:03:13:643,,15696.3,-132.615,66692,43.8251,-120.653,0,0,0,0,0,0,0,6.68902e-198,1.78733e-306
00:03:14:652,,15576.2,-120.136,66060.9,43.8252,-120.653,0,0,0,0,0,0,0,6.68902e-198,1.78733e-306
00:03:15:663,,15451.9,-124.279,65950.7,43.8253,-120.652,0,0,0,0,0,0,0,6.68902e-198,1.78733e-306
00:03:16:676,,15346.1,-105.815,65454,43.8255,-120.653,0,0,0,0,0,0,0,6.68902e-198,1.78733e-306
00:03:17:689,,15219.7,-126.377,64804.7,43.8258,-120.652,0,0,0,0,0,0,0,6.68902e-198,1.78733e-306
00:03:18:693,,15139.2,-80.5572,63839.3,43.826,-120.652,0,0,0,0,0,0,0,6.68902e-198,1.78733e-306
00:03:19:700,,15001.5,-137.661,65636.2,43.8261,-120.652,0,0,0,0,0,0,0,6.68902e-198,1.78733e-306
00:03:20:713,,14900.8,-100.68,63970.8,43.8263,-120.652,0,0,0,0,0,0,0,6.68902e-198,1.78733e-306
00:03:21:726,,14780.4,-120.466,64687.4,43.8265,-120.652,0,0,0,0,0,0,0,6.68902e-198,1.78733e-306
00:03:22:728,,14696,-84.3864,64312.1,43.8268,-120.652,0,0,0,0,0,0,0,6.68902e-198,1.78733e-306
00:03:23:741,,14541.4,-154.586,64879.7,43.827,-120.652,0,0,0,0,0,0,0,6.68902e-198,1.78733e-306
00:03:24:749,,14434.3,-107.086,64843.3,43.8271,-120.652,0,0,0,0,0,0,0,6.68902e-198,1.78733e-306
00:03:25:762,,14323.1,-111.159,12339.5,43.8273,-120.652,0,0,0,0,0,0,0,6.68902e-198,1.78733e-306
00:03:26:774,,14212.4,-110.745,66616.8,43.8274,-120.652,0,0,0,0,0,0,0,6.68902e-198,1.78733e-306
00:03:27:775,,14102.6,-109.842,12480.9,43.8277,-120.652,0,0,0,0,0,0,0,6.68902e-198,1.78733e-306
00:03:28:785,,13985.8,-116.785,13781.6,43.8279,-120.652,0,0,0,0,0,0,0,6.68902e-198,1.78733e-306
00:03:29:798,,13886.5,-99.2503,12776.1,43.8281,-120.652,0,0,0,0,0,0,0,6.68902e-198,1.78733e-306
00:03:30:810,,13787.1,-99.4074,13324.7,43.8282,-120.652,0,0,0,0,0,0,0,6.68902e-198,1.78733e-306
00:03:31:825,,13663.3,-123.795,12615.5,43.8283,-120.652,0,0,0,0,0,0,0,6.68902e-198,1.78733e-306
00:03:32:842,,13574.8,-88.526,65539.2,43.8286,-120.652,0,0,0,0,0,0,0,6.68902e-198,1.78733e-306
00:03:33:851,,13430.2,-144.56,13079.6,43.8288,-120.652,0,0,0,0,0,0,0,6.68902e-198,1.78733e-306
00:03:34:868,,13319.9,-110.358,13708.5,43.829,-120.652,0,0,0,0,0,0,0,6.68902e-198,1.78733e-306
00:03:35:875,,13205.2,-114.724,65756.9,43.8291,-120.652,0,0,0,0,0,0,0,6.68902e-198,1.78733e-306
00:03:36:888,,13120.4,-84.8042,64820.2,43.8293,-120.652,0,0,0,0,0,0,0,6.68902e-198,1.78733e-306
00:03:37:890,,12982.7,-137.653,65938.3,43.8295,-120.652,0,0,0,0,0,0,0,6.68902e-198,1.78733e-306
00:03:38:897,,12898.5,-84.1787,65034.4,43.8298,-120.652,0,0,0,0,0,0,0,6.68902e-198,1.78733e-306
00:03:39:898,,12764.2,-134.291,12464.1,43.83,-120.651,0,0,0,0,0,0,0,6.68902e-198,1.78733e-306
00:03:40:913,,12656.8,-107.471,66423.4,43.8301,-120.651,0,0,0,0,0,0,0,6.68902e-198,1.78733e-306
00:03:41:921,,12543.1,-113.623,12718.2,43.8302,-120.651,0,0,0,0,0,0,0,6.68902e-198,1.78733e-306
00:03:42:923,,12456.5,-86.6824,66530.1,43.8304,-120.651,0,0,0,0,0,0,0,6.68902e-198,1.78733e-306
00:03:43:936,,12359.3,-97.1047,12011.4,43.8307,-120.651,0,0,0,0,0,0,0,6.68902e-198,1.78733e-306
00:03:44:942,,12235.3,-124.061,11794.8,43.8309,-120.651,0,0,0,0,0,0,0,6.68902e-198,1.78733e-306
00:03:45:943,,12146.7,-88.5675,66152.6,43.8311,-120.651,0,0,0,0,0,0,0,6.68902e-198,1.78733e-306
00:03:46:953,,12033.6,-113.099,11850.5,43.8312,-120.651,0,0,0,0,0,0,0,6.68902e-198,1.78733e-306
00:03:47:965,,11923.2,-110.392,13091,43.8314,-120.651,0,0,0,0,0,0,0,6.68902e-198,1.78733e-306
00:03:48:977,,11810.5,-112.724,66399.1,43.8316,-120.651,0,0,0,0,0,0,0,6.68902e-198,1.78733e-306
00:03:49:990,,11706.4,-104.136,66812.2,43.8318,-120.651,0,0,0,0,0,0,0,6.68902e-198,1.78733e-306
00:03:51:003,,11594,-112.374,13307.5,43.832,-120.651,0,0,0,0,0,0,0,6.68902e-198,1.78733e-306
00:03:52:014,,11487.9,-106.101,13109.3,43.8321,-120.651,0,0,0,0,0,0,0,6.68902e-198,1.78733e-306
00:03:53:027,,11374.1,-113.815,66215.6,43.8323,-120.651,0,0,0,0,0,0,0,6.68902e-198,1.78733e-306
00:03:54:042,,11266.5,-107.574,13203.7,43.8325,-120.651,0,0,0,0,0,0,0,6.68902e-198,1.78733e-306
00:03:55:054,,11138.4,-128.143,66647.1,43.8327,-120.651,0,0,0,0,0,0,0,6.68902e-198,1.78733e-306
00:03:56:067,,11044.9,-93.4229,65514.9,43.8329,-120.65,0,0,0,0,0,0,0,6.68902e-198,1.78733e-306
00:03:57:080,,10927.9,-117.041,66292.6,43.833,-120.65,0,0,0,0,0,0,0,6.68902e-198,1.78733e-306
00:03:58:096,,10837.8,-90.1342,65600.3,43.8331,-120.65,0,0,0,0,0,0,0,6.68902e-198,1.78733e-306
00:03:59:108,,10710.5,-127.236,65441.7,43.8332,-120.65,0,0,0,0,0,0,0,6.68902e-198,1.78733e-306
00:04:00:120,,10618.8,-91.6861,65705.1,43.8334,-120.65,0,0,0,0,0,0,0,6.68902e-198,1.78733e-306
00:04:01:132,,10504.7,-114.113,66407.6,43.8336,-120.65,0,0,0,0,0,0,0,6.68902e-198,1.78733e-306
00:04:02:147,,10404.1,-100.643,66455.6,43.8338,-120.65,0,0,0,0,0,0,0,6.68902e-198,1.78733e-306
00:04:03:151,,10276.5,-127.615,66082.5,43.8338,-120.65,0,0,0,0,0,0,0,6.68902e-198,1.78733e-306
00:04:04:172,,10173.5,-102.919,66664.2,43.8339,-120.649,0,0,0,0,0,0,0,6.68902e-198,1.78733e-306
00:04:05:173,,10070.1,-103.436,66471,43.8341,-120.649,0,0,0,0,0,0,0,6.68902e-198,1.78733e-306
00:04:06:195,,9978.6,-91.5084,12247,43.8343,-120.649,0,0,0,0,0,0,0,6.68902e-198,1.78733e-306
00:04:07:199,,9864.28,-114.324,66066.5,43.8344,-120.649,0,0,0,0,0,0,0,6.68902e-198,1.78733e-306
00:04:08:215,,9766.14,-98.1419,66360.8,43.8345,-120.649,0,0,0,0,0,0,0,6.68902e-198,1.78733e-306
00:04:09:229,,9670.01,-96.1311,65762.3,43.8345,-120.649,0,0,0,0,0,0,0,6.68902e-198,1.78733e-306
00:04:10:241,,9549.63,-120.378,65072,43.8346,-120.649,0,0,0,0,0,0,0,6.68902e-198,1.78733e-306
00:04:11:253,,9442.79,-106.844,64386.7,43.8348,-120.649,0,0,0,0,0,0,0,6.68902e-198,1.78733e-306
00:04:12:262,,9340.51,-102.273,64665.4,43.8349,-120.649,0,0,0,0,0,0,0,6.68902e-198,1.78733e-306
00:04:13:276,,9245.7,-94.8154,65527.6,43.8349,-120.648,0,0,0,0,0,0,0,6.68902e-198,1.78733e-306
00:04:14:290,,9126.54,-119.155,64775.6,43.8349,-120.648,0,0,0,0,0,0,0,6.68902e-198,1.78733e-306
00:04:15:295,,9019.9,-106.64,65423.3,43.835,-120.648,0,0,0,0,0,0,0,6.68902e-198,1.78733e-306
00:04:16:304,,8914.46,-105.445,65388.2,43.8351,-120.648,0,0,0,0,0,0,0,6.68902e-198,1.78733e-306
00:04:17:313,,8816.39,-98.0653,65725.1,43.8352,-120.648,0,0,0,0,0,0,0,6.68902e-198,1.78733e-306
00:04:18:324,,8722.75,-93.6375,65533.9,43.8353,-120.648,0,0,0,0,0,0,0,6.68902e-198,1.78733e-306
00:04:19:340,,8604.77,-117.984,65778.8,43.8353,-120.648,0,0,0,0,0,0,0,6.68902e-198,1.78733e-306
00:04:20:341,,8500.72,-104.046,65410.3,43.8353,-120.648,0,0,0,0,0,0,0,6.68902e-198,1.78733e-306
00:04:21:347,,8403.14,-97.584,65252.5,43.8354,-120.648,0,0,0,0,0,0,0,6.68902e-198,1.78733e-306
00:04:22:360,,8303.42,-99.717,65504.3,43.8355,-120.648,0,0,0,0,0,0,0,6.68902e-198,1.78733e-306
00:04:23:362,,8206.45,-96.968,13147.2,43.8356,-120.648,0,0,0,0,0,0,0,6.68902e-198,1.78733e-306
00:04:24:369,,8099.69,-106.761,12366.4,43.8356,-120.647,0,0,0,0,0,0,0,6.68902e-198,1.78733e-306
00:04:25:383,,7998.53,-101.166,66663.4,43.8355,-120.647,0,0,0,0,0,0,0,6.68902e-198,1.78733e-306
00:04:26:385,,7886.46,-112.068,66620.5,43.8355,-120.647,0,0,0,0,0,0,0,6.68902e-198,1.78733e-306
00:04:27:392,,7799.17,-87.2865,66658.2,43.8356,-120.647,0,0,0,0,0,0,0,6.68902e-198,1.78733e-306
00:04:28:405,,7693.4,-105.778,64817.5,43.8357,-120.647,0,0,0,0,0,0,0,6.68902e-198,1.78733e-306
00:04:29:406,,7581.22,-112.172,65508.8,43.8356,-120.647,0,0,0,0,0,0,0,6.68902e-198,1.78733e-306
00:04:30:415,,7480.93,-100.295,63865.5,43.8356,-120.647,0,0,0,0,0,0,0,6.68902e-198,1.78733e-306
00:04:31:427,,7375.43,-105.498,65653.1,43.8355,-120.647,0,0,0,0,0,0,0,6.68902e-198,1.78733e-306
00:04:32:441,,7277.36,-98.0667,13447.9,43.8356,-120.647,0,0,0,0,0,0,0,6.68902e-198,1.78733e-306
00:04:33:454,,7174.51,-102.857,12290.2,43.8357,-120.647,0,0,0,0,0,0,0,6.68902e-198,1.78733e-306
00:04:34:457,,7074.72,-99.7859,66626.2,43.8357,-120.647,0,0,0,0,0,0,0,6.68902e-198,1.78733e-306
00:04:35:470,,6970.97,-103.754,12900.7,43.8357,-120.647,0,0,0,0,0,0,0,6.68902e-198,1.78733e-306
00:04:36:481,,6873.38,-97.5898,65820.1,43.8356,-120.647,0,0,0,0,0,0,0,6.68902e-198,1.78733e-306
00:04:37:490,,6096.53,-776.843,65401.7,43.8356,-120.647,0,0,0,0,0,0,0,6.68902e-198,1.78733e-306
00:04:38:502,,5996.7,-99.8347,66022.9,43.8357,-120.647,0,0,0,0,0,0,0,6.68902e-198,1.78733e-306
00:04:39:516,,5896.43,-100.274,64707.7,43.8357,-120.647,0,0,0,0,0,0,0,6.68902e-198,1.78733e-306
00:04:40:529,,5800.97,-95.4547,65782.3,43.8357,-120.647,0,0,0,0,0,0,0,6.68902e-198,1.78733e-306
00:04:41:543,,5694.96,-106.016,66499,43.8357,-120.647,0,0,0,0,0,0,0,6.68902e-198,1.78733e-306
00:04:42:555,,5611.67,-83.2901,13646.5,43.8357,-120.647,0,0,0,0,0,0,0,6.68902e-198,1.78733e-306
00:04:43:557,,5520.78,-90.884,12223.9,43.8358,-120.647,0,0,0,0,0,0,0,6.68902e-198,1.78733e-306
00:04:44:571,,5412.73,-108.052,13230.1,43.8358,-120.647,0,0,0,0,0,0,0,6.68902e-198,1.78733e-306
00:04:45:571,,5316.13,-96.6008,66048.7,43.8358,-120.647,0,0,0,0,0,0,0,6.68902e-198,1.78733e-306
00:04:46:573,,5219.08,-97.0453,65535,43.8358,-120.647,0,0,0,0,0,0,0,6.68902e-198,1.78733e-306
00:04:47:587,,5123.8,-95.2812,65024.7,43.8358,-120.647,0,0,0,0,0,0,0,6.68902e-198,1.78733e-306
00:04:48:599,,5403.83,280.032,65549.3,43.8358,-120.647,0,0,0,0,0,0,0,6.68902e-198,1.78733e-306
00:04:49:600,,5298.03,-105.809,66357.1,43.8359,-120.646,0,0,0,0,0,0,0,6.68902e-198,1.78733e-306
00:04:50:610,,5200.67,-97.3585,66144.7,43.8358,-120.646,0,0,0,0,0,0,0,6.68902e-198,1.78733e-306
00:04:51:613,,5110.58,-90.0861,66511,43.8357,-120.646,0,0,0,0,0,0,0,6.68902e-198,1.78733e-306
00:04:52:625,,5010.5,-100.083,65597.1,43.8356,-120.646,0,0,0,0,0,0,0,6.68902e-198,1.78733e-306
00:04:53:629,,4904.89,-105.607,64962.3,43.8356,-120.646,0,0,0,0,0,0,0,6.68902e-198,1.78733e-306
00:04:54:630,,4796.36,-108.531,65245.9,43.8356,-120.646,0,0,0,0,0,0,0,6.68902e-198,1.78733e-306
00:04:55:642,,4700.88,-95.479,64635.1,43.8356,-120.646,0,0,0,0,0,0,0,6.68902e-198,1.78733e-306
