Time----------,Event----------,Altitude----------,Velocity----------,Acceleration----------,Latitude----------,Longitude----------,GyroX----------,GyroY----------,GyroZ----------,Pitch Rate----------,Roll Rate----------,Yaw Rate----------,MagX----------,MagY----------,MagZ----------
00:00:01:001,,-423.268,0,91170.5,43.7957,-120.652,0,0,0,0,0,0,0,4.24399e-314,7.6604e-312
00:00:02:003,,-422.958,0.309719,91179.7,43.7957,-120.652,0,0,0,0,0,0,0,4.24399e-314,7.6604e-312
00:00:03:017,,-423.887,-0.929149,112303,43.7957,-120.652,0,0,0,0,0,0,0,4.24399e-314,7.6604e-312
00:00:04:017,,-423.268,0.61943,91187.6,43.7957,-120.652,0,0,0,0,0,0,0,4.24399e-314,7.6604e-312
00:00:05:019,,-422.029,1.23889,91192.6,43.7957,-120.652,0,0,0,0,0,0,0,4.24399e-314,7.6604e-312
00:00:06:033,,-422.958,-0.929175,91166,43.7957,-120.652,0,0,0,0,0,0,0,4.24399e-314,7.6604e-312
00:00:07:035,,-423.268,-0.309719,91177.6,43.7957,-120.652,0,0,0,0,0,0,0,4.24399e-314,7.6604e-312
00:00:08:036,,-422.029,1.23889,91179,43.7957,-120.652,0,0,0,0,0,0,0,4.24399e-314,7.6604e-312
00:00:09:050,,-422.958,-0.929175,91192.8,43.7957,-120.652,0,0,0,0,0,0,0,4.24399e-314,7.6604e-312
00:00:10:052,,-422.958,0,91174.7,43.7957,-120.652,0,0,0,0,0,0,0,4.24399e-314,7.6604e-312
00:00:11:053,,-422.339,0.619447,91184.6,43.7957,-120.652,0,0,0,0,0,0,0,4.24399e-314,7.6604e-312
00:00:12:067,,-423.577,-1.23888,91197.7,43.7957,-120.652,0,0,0,0,0,0,0,4.24399e-314,7.6604e-312
00:00:13:069,,-424.816,-1.23884,91202.7,43.7957,-120.652,0,0,0,0,0,0,0,4.24399e-314,7.6604e-312
00:00:14:084,,-423.577,1.23884,91181.1,43.7957,-120.652,0,0,0,0,0,0,0,4.24399e-314,7.6604e-312
00:00:15:086,,-418.312,5.26557,39361.5,43.7957,-120.652,0,0,0,0,0,0,0,4.24399e-314,7.6604e-312
00:00:16:100,Launch,-204.506,213.806,76008.6,43.7958,-120.651,0,0,0,0,0,0,0,4.24399e-314,7.6604e-312
00:00:17:101,,258.895,463.401,75451.4,43.7958,-120.651,0,0,0,0,0,0,0,4.24399e-314,7.6604e-312
00:00:18:104,,1005.87,746.973,77178.9,43.7959,-120.651,0,0,0,0,0,0,0,4.24399e-314,7.6604e-312
00:00:19:117,,1944.5,938.636,80666.5,GPS ERROR,GPS ERROR,0,0,0,0,0,0,0,4.24399e-314,7.6604e-312
00:00:20:119,,2700.09,755.584,86280.1,GPS ERROR,GPS ERROR,0,0,0,0,0,0,0,4.24399e-314,7.6604e-312
00:00:21:133,,3557.89,857.802,111782,GPS ERROR,GPS ERROR,0,0,0,0,0,0,0,4.24399e-314,7.6604e-312
00:00:22:135,,4687.11,1129.22,91962.3,GPS ERROR,GPS ERROR,0,0,0,0,0,0,0,4.24399e-314,7.6604e-312
00:00:23:150,,6003.12,1316.01,92102.1,GPS ERROR,GPS ERROR,0,0,0,0,0,0,0,4.24399e-314,7.6604e-312
00:00:24:152,,7417.27,1414.15,64750.9,GPS ERROR,GPS ERROR,0,0,0,0,0,0,0,4.24399e-314,7.6604e-312
00:00:25:166,,8894.57,1477.3,64655.7,GPS ERROR,GPS ERROR,0,0,0,0,0,0,0,4.24399e-314,7.6604e-312
00:00:26:169,,10350.6,1456.06,64864.6,GPS ERROR,GPS ERROR,0,0,0,0,0,0,0,4.24399e-314,7.6604e-312
00:00:27:183,,11820.1,1469.44,92375.5,GPS ERROR,GPS ERROR,0,0,0,0,0,0,0,4.24399e-314,7.6604e-312
00:00:28:185,,13273.5,1453.39,92374.6,GPS ERROR,GPS ERROR,0,0,0,0,0,0,0,4.24399e-314,7.6604e-312
00:00:29:186,,14721.6,1448.11,92373,GPS ERROR,GPS ERROR,0,0,0,0,0,0,0,4.24399e-314,7.6604e-312
00:00:30:200,,16126.5,1404.95,92440.8,GPS ERROR,GPS ERROR,0,0,0,0,0,0,0,4.24399e-314,7.6604e-312
00:00:31:202,,17441.5,1315.03,92456.9,GPS ERROR,GPS ERROR,0,0,0,0,0,0,0,4.24399e-314,7.6604e-312
00:00:32:203,,18690,1248.43,92414.6,GPS ERROR,GPS ERROR,0,0,0,0,0,0,0,4.24399e-314,7.6604e-312
00:00:33:217,,19757.8,1067.8,92397.8,43.7922,-120.654,0,0,0,0,0,0,0,4.24399e-314,7.6604e-312
00:00:34:219,,20750.7,992.967,65152.7,GPS ERROR,GPS ERROR,0,0,0,0,0,0,0,4.24399e-314,7.6604e-312
00:00:35:233,,21857.7,1106.96,65156.9,GPS ERROR,GPS ERROR,0,0,0,0,0,0,0,4.24399e-314,7.6604e-312
00:00:36:236,,22837.9,980.17,65116.8,GPS ERROR,GPS ERROR,0,0,0,0,0,0,0,4.24399e-314,7.6604e-312
00:00:37:250,,23744.3,906.406,91939.9,43.7916,-120.654,0,0,0,0,0,0,0,4.24399e-314,7.6604e-312
00:00:38:252,,24610.4,866.141,92395.4,GPS ERROR,GPS ERROR,0,0,0,0,0,0,0,4.24399e-314,7.6604e-312
00:00:39:266,,25498.4,887.928,92385.7,GPS ERROR,GPS ERROR,0,0,0,0,0,0,0,4.24399e-314,7.6604e-312
00:00:40:268,,26475,976.608,64679.7,GPS ERROR,GPS ERROR,0,0,0,0,0,0,0,4.24399e-314,7.6604e-312
00:00:41:283,,27206.8,731.818,64775.2,43.7913,-120.654,0,0,0,0,0,0,0,4.24399e-314,7.6604e-312
00:00:42:285,,27836.4,629.569,65051.9,GPS ERROR,GPS ERROR,0,0,0,0,0,0,0,4.24399e-314,7.6604e-312
00:00:43:299,,28451.7,615.329,65254.7,GPS ERROR,GPS ERROR,0,0,0,0,0,0,0,4.24399e-314,7.6604e-312
00:00:44:302,,29006.2,554.523,65359.4,GPS ERROR,GPS ERROR,0,0,0,0,0,0,0,4.24399e-314,7.6604e-312
00:00:45:316,,29556.4,550.23,65374.3,43.7909,-120.654,0,0,0,0,0,0,0,4.24399e-314,7.6604e-312
00:00:46:317,,29998.2,441.719,65430.2,GPS ERROR,GPS ERROR,0,0,0,0,0,0,0,4.24399e-314,7.6604e-312
00:00:47:318,,30440.4,442.266,65448.2,GPS ERROR,GPS ERROR,0,0,0,0,0,0,0,4.24399e-314,7.6604e-312
00:00:48:319,,30837.3,396.866,65466.1,GPS ERROR,GPS ERROR,0,0,0,0,0,0,0,4.24399e-314,7.6604e-312
00:00:49:333,,31190.2,352.901,92607,GPS ERROR,GPS ERROR,0,0,0,0,0,0,0,4.24399e-314,7.6604e-312
00:00:50:335,,31549.8,359.654,92643,GPS ERROR,GPS ERROR,0,0,0,0,0,0,0,4.24399e-314,7.6604e-312
00:00:51:349,,31807.1,257.217,92640.2,GPS ERROR,GPS ERROR,0,0,0,0,0,0,0,4.24399e-314,7.6604e-312
00:00:52:352,,32048,240.979,92638.1,GPS ERROR,GPS ERROR,0,0,0,0,0,0,0,4.24399e-314,7.6604e-312
00:00:53:366,,32294.2,246.128,92650.1,GPS ERROR,GPS ERROR,0,0,0,0,0,0,0,4.24399e-314,7.6604e-312
00:00:54:369,,32488,193.835,92645.8,GPS ERROR,GPS ERROR,0,0,0,0,0,0,0,4.24399e-314,7.6604e-312
00:00:55:371,,32588.8,100.842,92651.5,GPS ERROR,GPS ERROR,0,0,0,0,0,0,0,4.24399e-314,7.6604e-312
00:00:56:383,,32692,103.176,92639.5,GPS ERROR,GPS ERROR,0,0,0,0,0,0,0,4.24399e-314,7.6604e-312
00:00:57:385,,32749.1,57.0714,92623.9,GPS ERROR,GPS ERROR,0,0,0,0,0,0,0,4.24399e-314,7.6604e-312
00:00:58:399,,32789.8,40.7055,65451,GPS ERROR,GPS ERROR,0,0,0,0,0,0,0,4.24399e-314,7.6604e-312
00:00:59:402,,32804.3,14.5535,4636.58,GPS ERROR,GPS ERROR,0,0,0,0,0,0,0,4.24399e-314,7.6604e-312
00:01:00:416,Apogee,32763.6,-40.7288,90894.8,GPS ERROR,GPS ERROR,0,0,0,0,0,0,0,4.24399e-314,7.6604e-312
00:01:01:418,,32862.6,99.0265,87436.7,GPS ERROR,GPS ERROR,0,0,0,0,0,0,0,4.24399e-314,7.6604e-312
00:01:02:432,Apogee,32655.3,-207.318,89450.4,43.79,-120.654,0,0,0,0,0,0,0,4.24399e-314,7.6604e-312
00:01:03:435,,32635.1,-20.2534,82248.8,43.79,-120.654,0,0,0,0,0,0,0,4.24399e-314,7.6604e-312
00:01:04:436,,32553.3,-81.8134,68080.9,43.79,-120.654,0,0,0,0,0,0,0,4.24399e-314,7.6604e-312
00:01:05:449,,32463.1,-90.1704,63254.5,43.7901,-120.654,0,0,0,0,0,0,0,4.24399e-314,7.6604e-312
00:01:06:450,,32274.2,-188.895,64292.5,43.7902,-120.654,0,0,0,0,0,0,0,4.24399e-314,7.6604e-312
00:01:07:452,,32048,-226.16,7959.92,43.7903,-120.654,0,0,0,0,0,0,0,4.24399e-314,7.6604e-312
00:01:08:466,,32003.8,-44.2402,56865.4,43.7904,-120.654,0,0,0,0,0,0,0,4.24399e-314,7.6604e-312
00:01:09:468,,31851.9,-151.903,63373.7,43.7905,-120.654,0,0,0,0,0,0,0,4.24399e-314,7.6604e-312
00:01:10:483,,31653.5,-198.362,9057.65,43.7908,-120.654,0,0,0,0,0,0,0,4.24399e-314,7.6604e-312
00:01:11:485,,31571.1,-82.431,64341,43.791,-120.654,0,0,0,0,0,0,0,4.24399e-314,7.6604e-312
00:01:12:499,,31606.3,35.1629,61872.4,43.7913,-120.654,0,0,0,0,0,0,0,4.24399e-314,7.6604e-312
00:01:13:501,,31282.4,-323.89,65394.1,GPS ERROR,GPS ERROR,0,0,0,0,0,0,0,4.24399e-314,7.6604e-312
00:01:14:502,,31113.8,-168.605,61966.1,43.7918,-120.654,0,0,0,0,0,0,0,4.24399e-314,7.6604e-312
00:01:15:516,,30910.2,-203.583,89957.8,43.792,-120.654,0,0,0,0,0,0,0,4.24399e-314,7.6604e-312
00:01:16:518,,30743.1,-167.091,63541,43.7924,-120.654,0,0,0,0,0,0,0,4.24399e-314,7.6604e-312
00:01:17:535,,30876.9,133.767,7968.12,43.7927,-120.654,0,0,0,0,0,0,0,4.24399e-314,7.6604e-312
00:01:18:549,,30539.7,-337.126,61978.2,43.7929,-120.654,0,0,0,0,0,0,0,4.24399e-314,7.6604e-312
00:01:19:550,,30406.8,-132.923,67390,43.7932,-120.654,0,0,0,0,0,0,0,4.24399e-314,7.6604e-312
00:01:20:566,,30227.1,-179.689,65725.5,43.7936,-120.654,0,0,0,0,0,0,0,4.24399e-314,7.6604e-312
00:01:21:567,,30069.6,-157.523,13364.1,43.794,-120.654,0,0,0,0,0,0,0,4.24399e-314,7.6604e-312
00:01:22:568,,29906.1,-163.511,11366.1,43.7943,-120.654,0,0,0,0,0,0,0,4.24399e-314,7.6604e-312
00:01:23:583,,29769.5,-136.629,66016.8,43.7946,-120.654,0,0,0,0,0,0,0,4.24399e-314,7.6604e-312
00:01:24:585,,29601,-168.501,65292,43.7949,-120.654,0,0,0,0,0,0,0,4.24399e-314,7.6604e-312
00:01:25:599,,29439.5,-161.46,65521.8,43.7952,-120.654,0,0,0,0,0,0,0,4.24399e-314,7.6604e-312
00:01:26:601,,29299.3,-140.146,66036.5,43.7956,-120.654,0,0,0,0,0,0,0,4.24399e-314,7.6604e-312
00:01:27:616,,29159.1,-140.243,64900.9,43.796,-120.654,0,0,0,0,0,0,0,4.24399e-314,7.6604e-312
00:01:28:618,,29017.1,-142.011,65636.6,43.7963,-120.654,0,0,0,0,0,0,0,4.24399e-314,7.6604e-312
00:01:29:632,,28859.2,-157.912,65336.9,43.7966,-120.654,0,0,0,0,0,0,0,4.24399e-314,7.6604e-312
00:01:30:634,,28713.8,-145.374,12488.7,43.7969,-120.654,0,0,0,0,0,0,0,4.24399e-314,7.6604e-312
00:01:31:649,,28575.8,-137.984,12030.4,43.7972,-120.654,0,0,0,0,0,0,0,4.24399e-314,7.6604e-312
00:01:32:650,,28414,-161.848,13463,43.7976,-120.654,0,0,0,0,0,0,0,4.24399e-314,7.6604e-312
00:01:33:666,,28283.3,-130.724,66097,43.798,-120.654,0,0,0,0,0,0,0,4.24399e-314,7.6604e-312
00:01:34:667,,28151.6,-131.702,65942.5,43.7983,-120.654,0,0,0,0,0,0,0,4.24399e-314,7.6604e-312
00:01:35:682,,27989,-162.502,65473.3,43.7985,-120.654,0,0,0,0,0,0,0,4.24399e-314,7.6604e-312
00:01:36:683,,27869.2,-119.822,13756.6,43.7989,-120.654,0,0,0,0,0,0,0,4.24399e-314,7.6604e-312
00:01:37:684,,27726.8,-142.437,66028.6,43.7993,-120.654,0,0,0,0,0,0,0,4.24399e-314,7.6604e-312
00:01:38:685,,27580.4,-146.439,13329.7,43.7997,-120.654,0,0,0,0,0,0,0,4.24399e-314,7.6604e-312
00:01:39:699,,27424.5,-155.897,66337.1,43.8,-120.654,0,0,0,0,0,0,0,4.24399e-314,7.6604e-312
00:01:40:701,,27282,-142.435,66458.5,43.8003,-120.654,0,0,0,0,0,0,0,4.24399e-314,7.6604e-312
00:01:41:716,,27126.3,-155.726,66146.1,43.8006,-120.654,0,0,0,0,0,0,0,4.24399e-314,7.6604e-312
00:01:42:717,,26975.3,-150.944,66490.8,43.8011,-120.654,0,0,0,0,0,0,0,4.24399e-314,7.6604e-312
00:01:43:732,,26845.3,-130.029,65022.8,43.8015,-120.654,0,0,0,0,0,0,0,4.24399e-314,7.6604e-312
00:01:44:734,,26711.3,-134.011,65569.1,43.8018,-120.654,0,0,0,0,0,0,0,4.24399e-314,7.6604e-312
00:01:45:735,,26578,-133.344,65815.9,43.8021,-120.654,0,0,0,0,0,0,0,4.24399e-314,7.6604e-312
00:01:46:748,,26419.4,-158.535,65117.1,43.8024,-120.654,0,0,0,0,0,0,0,4.24399e-314,7.6604e-312
00:01:47:753,,26283.7,-135.686,64767.1,43.8028,-120.654,0,0,0,0,0,0,0,4.24399e-314,7.6604e-312
00:01:48:765,,26142,-141.775,65359.6,43.8032,-120.654,0,0,0,0,0,0,0,4.24399e-314,7.6604e-312
00:01:49:767,,26015.2,-126.813,64870.9,43.8035,-120.654,0,0,0,0,0,0,0,4.24399e-314,7.6604e-312
00:01:50:782,,25872.5,-142.606,65310,43.8038,-120.654,0,0,0,0,0,0,0,4.24399e-314,7.6604e-312
00:01:51:784,,25725.5,-147.042,64915.9,43.8041,-120.654,0,0,0,0,0,0,0,4.24399e-314,7.6604e-312
00:01:52:798,,25589.6,-135.931,65882.1,43.8044,-120.654,0,0,0,0,0,0,0,4.24399e-314,7.6604e-312
00:01:53:801,,25440.4,-149.18,66171.3,43.8048,-120.654,0,0,0,0,0,0,0,4.24399e-314,7.6604e-312
00:01:54:815,,25302.2,-138.157,12880.8,43.8051,-120.654,0,0,0,0,0,0,0,4.24399e-314,7.6604e-312
00:01:55:817,,25181.5,-120.766,66058.1,43.8055,-120.654,0,0,0,0,0,0,0,4.24399e-314,7.6604e-312
00:01:56:818,,25036.7,-144.792,66790.6,43.8057,-120.654,0,0,0,0,0,0,0,4.24399e-314,7.6604e-312
00:01:57:832,,24896.2,-140.434,65870.2,43.806,-120.654,0,0,0,0,0,0,0,4.24399e-314,7.6604e-312
00:01:58:835,,24763.7,-132.565,66289.4,43.8063,-120.655,0,0,0,0,0,0,0,4.24399e-314,7.6604e-312
00:01:59:849,,24631.8,-131.924,64847.3,43.8067,-120.655,0,0,0,0,0,0,0,4.24399e-314,7.6604e-312
00:02:00:851,,24504.7,-127.041,13122.9,43.807,-120.655,0,0,0,0,0,0,0,4.24399e-314,7.6604e-312
00:02:01:866,,24383.9,-120.813,65098,43.8072,-120.655,0,0,0,0,0,0,0,4.24399e-314,7.6604e-312
00:02:02:868,,24280.5,-103.432,64880.3,43.8075,-120.655,0,0,0,0,0,0,0,4.24399e-314,7.6604e-312
00:02:03:882,,24088,-192.452,65835.2,43.8077,-120.655,0,0,0,0,0,0,0,4.24399e-314,7.6604e-312
00:02:04:884,,23970.4,-117.604,63591.2,43.8081,-120.655,0,0,0,0,0,0,0,4.24399e-314,7.6604e-312
00:02:05:898,,23864.4,-106.037,65737.4,43.8084,-120.655,0,0,0,0,0,0,0,4.24399e-314,7.6604e-312
00:02:06:900,,23684.4,-179.946,65640.4,43.8087,-120.655,0,0,0,0,0,0,0,4.24399e-314,7.6604e-312
00:02:07:901,,23587,-97.4095,66037,43.8089,-120.655,0,0,0,0,0,0,0,4.24399e-314,7.6604e-312
00:02:08:915,,23419.8,-167.26,66250.2,43.8091,-120.655,0,0,0,0,0,0,0,4.24399e-314,7.6604e-312
00:02:09:917,,23303.6,-116.142,66027.7,43.8095,-120.655,0,0,0,0,0,0,0,4.24399e-314,7.6604e-312
00:02:10:931,,23150.9,-152.751,13238.3,43.8098,-120.655,0,0,0,0,0,0,0,4.24399e-314,7.6604e-312
00:02:11:932,,23068.1,-82.7811,66095.9,43.8101,-120.655,0,0,0,0,0,0,0,4.24399e-314,7.6604e-312
00:02:12:933,,22918,-150.122,65802.3,43.8103,-120.655,0,0,0,0,0,0,0,4.24399e-314,7.6604e-312
00:02:13:935,,22798.6,-119.381,66746,43.8105,-120.655,0,0,0,0,0,0,0,4.24399e-314,7.6604e-312
00:02:14:949,,22620.8,-177.783,12420.4,43.8108,-120.655,0,0,0,0,0,0,0,4.24399e-314,7.6604e-312
00:02:15:951,,22512.6,-108.233,66092,43.8111,-120.655,0,0,0,0,0,0,0,4.24399e-314,7.6604e-312
00:02:16:965,,22382.5,-130.113,65636.7,43.8115,-120.655,0,0,0,0,0,0,0,4.24399e-314,7.6604e-312
00:02:17:967,,22247.7,-134.727,64678.2,43.8117,-120.655,0,0,0,0,0,0,0,4.24399e-314,7.6604e-312
00:02:18:982,,22123.4,-124.337,65102.3,43.8119,-120.655,0,0,0,0,0,0,0,4.24399e-314,7.6604e-312
00:02:19:984,,22013.8,-109.554,66075.1,43.8122,-120.655,0,0,0,0,0,0,0,4.24399e-314,7.6604e-312
00:02:20:998,,21856.4,-157.418,65575.6,43.8126,-120.655,0,0,0,0,0,0,0,4.24399e-314,7.6604e-312
00:02:22:001,,21730.6,-125.811,65534.8,43.8129,-120.655,0,0,0,0,0,0,0,4.24399e-314,7.6604e-312
00:02:23:015,,21600.9,-129.711,12910.5,43.8132,-120.655,0,0,0,0,0,0,0,4.24399e-314,7.6604e-312
00:02:24:017,,21473.7,-127.209,65269.8,43.8134,-120.655,0,0,0,0,0,0,0,4.24399e-314,7.6604e-312
00:02:25:031,,21355.3,-118.42,12663.1,43.8136,-120.655,0,0,0,0,0,0,0,4.24399e-314,7.6604e-312
00:02:26:033,,21227.9,-127.36,13280.6,43.8138,-120.655,0,0,0,0,0,0,0,4.24399e-314,7.6604e-312
00:02:27:048,,21083,-144.94,66233.1,43.8142,-120.655,0,0,0,0,0,0,0,4.24399e-314,7.6604e-312
00:02:28:050,,20969.9,-113.048,65385.3,43.8144,-120.655,0,0,0,0,0,0,0,4.24399e-314,7.6604e-312
00:02:29:064,,20849.3,-120.665,66454.8,43.8147,-120.654,0,0,0,0,0,0,0,4.24399e-314,7.6604e-312
00:02:30:067,,20722.9,-126.33,65191.5,43.8149,-120.654,0,0,0,0,0,0,0,4.24399e-314,7.6604e-312
00:02:31:082,,20590.4,-132.532,66254.3,43.8151,-120.654,0,0,0,0,0,0,0,4.24399e-314,7.6604e-312
00:02:32:084,,20473.2,-117.218,66465.2,43.8155,-120.654,0,0,0,0,0,0,0,4.24399e-314,7.6604e-312
00:02:33:098,,20332.7,-140.511,64995,43.8158,-120.654,0,0,0,0,0,0,0,4.24399e-314,7.6604e-312
00:02:34:101,,20235.9,-96.7292,64698.8,43.8161,-120.654,0,0,0,0,0,0,0,4.24399e-314,7.6604e-312
00:02:35:115,,20139.5,-96.3999,65742.5,43.8163,-120.654,0,0,0,0,0,0,0,4.24399e-314,7.6604e-312
00:02:36:117,,19997.1,-142.482,65268,43.8165,-120.654,0,0,0,0,0,0,0,4.24399e-314,7.6604e-312
00:02:37:131,,19845.7,-151.356,65879.7,43.8169,-120.654,0,0,0,0,0,0,0,4.24399e-314,7.6604e-312
00:02:38:134,,19725.6,-120.149,66715.7,43.8172,-120.654,0,0,0,0,0,0,0,4.24399e-314,7.6604e-312
00:02:39:148,,19616.6,-108.95,12582.7,43.8175,-120.654,0,0,0,0,0,0,0,4.24399e-314,7.6604e-312
00:02:40:151,,19501.6,-115.045,66409.2,43.8178,-120.654,0,0,0,0,0,0,0,4.24399e-314,7.6604e-312
00:02:41:164,,19369.3,-132.26,13711.8,43.818,-120.654,0,0,0,0,0,0,0,4.24399e-314,7.6604e-312
00:02:42:165,,19272.3,-97.0329,65147.1,43.8182,-120.654,0,0,0,0,0,0,0,4.24399e-314,7.6604e-312
00:02:43:166,,19139.9,-132.373,13177.6,43.8186,-120.654,0,0,0,0,0,0,0,4.24399e-314,7.6604e-312
00:02:44:167,,19005.2,-134.67,13737.6,43.8189,-120.654,0,0,0,0,0,0,0,4.24399e-314,7.6604e-312
00:02:45:181,,18865.4,-139.828,66329,43.8191,-120.654,0,0,0,0,0,0,0,4.24399e-314,7.6604e-312
00:02:46:183,,18739.5,-125.898,13131.4,43.8193,-120.654,0,0,0,0,0,0,0,4.24399e-314,7.6604e-312
00:02:47:188,,18623.3,-116.166,66432,43.8195,-120.654,0,0,0,0,0,0,0,4.24399e-314,7.6604e-312
00:02:48:200,,18488.8,-134.555,65795.3,43.8198,-120.654,0,0,0,0,0,0,0,4.24399e-314,7.6604e-312
00:02:49:201,,18378.2,-110.606,64887.8,43.8201,-120.654,0,0,0,0,0,0,0,4.24399e-314,7.6604e-312
00:02:50:215,,18260.6,-117.551,65108.3,43.8204,-120.653,0,0,0,0,0,0,0,4.24399e-314,7.6604e-312
00:02:51:216,,18164.4,-96.1813,65600.6,43.8206,-120.653,0,0,0,0,0,0,0,4.24399e-314,7.6604e-312
00:02:52:232,,18048.9,-115.558,65535.5,43.8208,-120.653,0,0,0,0,0,0,0,4.24399e-314,7.6604e-312
00:02:53:234,,17897.9,-150.935,65494.2,43.821,-120.653,0,0,0,0,0,0,0,4.24399e-314,7.6604e-312
00:02:54:310,,17796.8,-101.116,13274.9,43.8213,-120.653,0,0,0,0,0,0,0,4.24399e-314,7.6604e-312
00:02:55:315,,17670,-126.871,66469.6,43.8216,-120.653,0,0,0,0,0,0,0,4.24399e-314,7.6604e-312
00:02:56:317,,17548.6,-121.341,12118.9,43.8218,-120.653,0,0,0,0,0,0,0,4.24399e-314,7.6604e-312
00:02:57:331,,17427.8,-120.835,66085.4,43.822,-120.653,0,0,0,0,0,0,0,4.24399e-314,7.6604e-312
00:02:58:333,,17312.4,-115.398,64412.6,43.8222,-120.654,0,0,0,0,0,0,0,4.24399e-314,7.6604e-312
00:02:59:347,,17189.2,-123.133,66547,43.8225,-120.654,0,0,0,0,0,0,0,4.24399e-314,7.6604e-312
00:03:00:348,,17094.9,-94.3216,12904.5,43.8227,-120.653,0,0,0,0,0,0,0,4.24399e-314,7.6604e-312
00:03:01:349,,16962.4,-132.513,65800.1,43.8229,-120.653,0,0,0,0,0,0,0,4.24399e-314,7.6604e-312
00:03:02:365,,16839.7,-122.741,66582.8,43.8231,-120.653,0,0,0,0,0,0,0,4.24399e-314,7.6604e-312
00:03:03:366,,16737.9,-101.801,12709.1,43.8232,-120.653,0,0,0,0,0,0,0,4.24399e-314,7.6604e-312
00:03:04:380,,16634.3,-103.59,12401.4,43.8235,-120.653,0,0,0,0,0,0,0,4.24399e-314,7.6604e-312
00:03:05:382,,16523.6,-110.696,11524.4,43.8237,-120.653,0,0,0,0,0,0,0,4.24399e-314,7.6604e-312
00:03:06:383,,16399,-124.632,12543.2,43.8239,-120.653,0,0,0,0,0,0,0,4.24399e-314,7.6604e-312
00:03:07:398,,16298.1,-100.807,12073.9,43.8241,-120.653,0,0,0,0,0,0,0,4.24399e-314,7.6604e-312
00:03:08:400,,16164.5,-133.695,66637.9,43.8242,-120.653,0,0,0,0,0,0,0,4.24399e-314,7.6604e-312
00:03:09:414,,16053.4,-111.036,66333.6,43.8244,-120.653,0,0,0,0,0,0,0,4.24399e-314,7.6604e-312
00:03:10:417,,15933.4,-120.034,13068.8,43.8247,-120.653,0,0,0,0,0,0,0,4.24399e-314,7.6604e-312
00:03:11:431,,15829,-104.432,66622.7,43.8249,-120.653,0,0,0,0,0,0,0,4.24399e-314,7.6604e-312
00:03:12:433,,15696.3,-132.615,66692,43.8251,-120.653,0,0,0,0,0,0,0,4.24399e-314,7.6604e-312
00:03:13:447,,15576.2,-120.136,66060.9,43.8252,-120.653,0,0,0,0,0,0,0,4.24399e-314,7.6604e-312
00:03:14:448,,15451.9,-124.279,65950.7,43.8253,-120.652,0,0,0,0,0,0,0,4.24399e-314,7.6604e-312
00:03:15:449,,15346.1,-105.815,65454,43.8255,-120.653,0,0,0,0,0,0,0,4.24399e-314,7.6604e-312
00:03:16:464,,15219.7,-126.377,64804.7,43.8258,-120.652,0,0,0,0,0,0,0,4.24399e-314,7.6604e-312
00:03:17:466,,15139.2,-80.5572,63839.3,43.826,-120.652,0,0,0,0,0,0,0,4.24399e-314,7.6604e-312
00:03:18:480,,15001.5,-137.661,65636.2,43.8261,-120.652,0,0,0,0,0,0,0,4.24399e-314,7.6604e-312
00:03:19:482,,14900.8,-100.68,63970.8,43.8263,-120.652,0,0,0,0,0,0,0,4.24399e-314,7.6604e-312
00:03:20:483,,14780.4,-120.466,64687.4,43.8265,-120.652,0,0,0,0,0,0,0,4.24399e-314,7.6604e-312
00:03:21:497,,14696,-84.3864,64312.1,43.8268,-120.652,0,0,0,0,0,0,0,4.24399e-314,7.6604e-312
00:03:22:499,,14541.4,-154.586,64879.7,43.827,-120.652,0,0,0,0,0,0,0,4.24399e-314,7.6604e-312
00:03:23:500,,14434.3,-107.086,64843.3,43.8271,-120.652,0,0,0,0,0,0,0,4.24399e-314,7.6604e-312
00:03:24:514,,14323.1,-111.159,12339.5,43.8273,-120.652,0,0,0,0,0,0,0,4.24399e-314,7.6604e-312
00:03:25:517,,14212.4,-110.745,66616.8,43.8274,-120.652,0,0,0,0,0,0,0,4.24399e-314,7.6604e-312
00:03:26:531,,14102.6,-109.842,12480.9,43.8277,-120.652,0,0,0,0,0,0,0,4.24399e-314,7.6604e-312
00:03:27:533,,13985.8,-116.785,13781.6,43.8279,-120.652,0,0,0,0,0,0,0,4.24399e-314,7.6604e-312
00:03:28:547,,13886.5,-99.2503,12776.1,43.8281,-120.652,0,0,0,0,0,0,0,4.24399e-314,7.6604e-312
00:03:29:550,,13787.1,-99.4074,13324.7,43.8282,-120.652,0,0,0,0,0,0,0,4.24399e-314,7.6604e-312
00:03:30:564,,13663.3,-123.795,12615.5,43.8283,-120.652,0,0,0,0,0,0,0,4.24399e-314,7.6604e-312
00:03:31:566,,13574.8,-88.526,65539.2,43.8286,-120.652,0,0,0,0,0,0,0,4.24399e-314,7.6604e-312
00:03:32:580,,13430.2,-144.56,13079.6,43.8288,-120.652,0,0,0,0,0,0,0,4.24399e-314,7.6604e-312
00:03:33:582,,13319.9,-110.358,13708.5,43.829,-120.652,0,0,0,0,0,0,0,4.24399e-314,7.6604e-312
00:03:34:583,,13205.2,-114.724,65756.9,43.8291,-120.652,0,0,0,0,0,0,0,4.24399e-314,7.6604e-312
00:03:35:597,,13120.4,-84.8042,64820.2,43.8293,-120.652,0,0,0,0,0,0,0,4.24399e-314,7.6604e-312
00:03:36:599,,12982.7,-137.653,65938.3,43.8295,-120.652,0,0,0,0,0,0,0,4.24399e-314,7.6604e-312
00:03:37:600,,12898.5,-84.1787,65034.4,43.8298,-120.652,0,0,0,0,0,0,0,4.24399e-314,7.6604e-312
00:03:38:613,,12764.2,-134.291,12464.1,43.83,-120.651,0,0,0,0,0,0,0,4.24399e-314,7.6604e-312
00:03:39:616,,12656.8,-107.471,66423.4,43.8301,-120.651,0,0,0,0,0,0,0,4.24399e-314,7.6604e-312
00:03:40:630,,12543.1,-113.623,12718.2,43.8302,-120.651,0,0,0,0,0,0,0,4.24399e-314,7.6604e-312
00:03:41:631,,12456.5,-86.6824,66530.1,43.8304,-120.651,0,0,0,0,0,0,0,4.24399e-314,7.6604e-312
00:03:42:633,,12359.3,-97.1047,12011.4,43.8307,-120.651,0,0,0,0,0,0,0,4.24399e-314,7.6604e-312
00:03:43:647,,12235.3,-124.061,11794.8,43.8309,-120.651,0,0,0,0,0,0,0,4.24399e-314,7.6604e-312
00:03:44:650,,12146.7,-88.5675,66152.6,43.8311,-120.651,0,0,0,0,0,0,0,4.24399e-314,7.6604e-312
00:03:45:664,,12033.6,-113.099,11850.5,43.8312,-120.651,0,0,0,0,0,0,0,4.24399e-314,7.6604e-312
00:03:46:666,,11923.2,-110.392,13091,43.8314,-120.651,0,0,0,0,0,0,0,4.24399e-314,7.6604e-312
00:03:47:668,,11810.5,-112.724,66399.1,43.8316,-120.651,0,0,0,0,0,0,0,4.24399e-314,7.6604e-312
00:03:48:680,,11706.4,-104.136,66812.2,43.8318,-120.651,0,0,0,0,0,0,0,4.24399e-314,7.6604e-312
00:03:49:682,,11594,-112.374,13307.5,43.832,-120.651,0,0,0,0,0,0,0,4.24399e-314,7.6604e-312
00:03:50:697,,11487.9,-106.101,13109.3,43.8321,-120.651,0,0,0,0,0,0,0,4.24399e-314,7.6604e-312
00:03:51:699,,11374.1,-113.815,66215.6,43.8323,-120.651,0,0,0,0,0,0,0,4.24399e-314,7.6604e-312
00:03:52:713,,11266.5,-107.574,13203.7,43.8325,-120.651,0,0,0,0,0,0,0,4.24399e-314,7.6604e-312
00:03:53:716,,11138.4,-128.143,66647.1,43.8327,-120.651,0,0,0,0,0,0,0,4.24399e-314,7.6604e-312
00:03:54:730,,11044.9,-93.4229,65514.9,43.8329,-120.65,0,0,0,0,0,0,0,4.24399e-314,7.6604e-312
00:03:55:733,,10927.9,-117.041,66292.6,43.833,-120.65,0,0,0,0,0,0,0,4.24399e-314,7.6604e-312
00:03:56:746,,10837.8,-90.1342,65600.3,43.8331,-120.65,0,0,0,0,0,0,0,4.24399e-314,7.6604e-312
00:03:57:749,,10710.5,-127.236,65441.7,43.8332,-120.65,0,0,0,0,0,0,0,4.24399e-314,7.6604e-312
00:03:58:750,,10618.8,-91.6861,65705.1,43.8334,-120.65,0,0,0,0,0,0,0,4.24399e-314,7.6604e-312
00:03:59:764,,10504.7,-114.113,66407.6,43.8336,-120.65,0,0,0,0,0,0,0,4.24399e-314,7.6604e-312
00:04:00:766,,10404.1,-100.643,66455.6,43.8338,-120.65,0,0,0,0,0,0,0,4.24399e-314,7.6604e-312
00:04:01:780,,10276.5,-127.615,66082.5,43.8338,-120.65,0,0,0,0,0,0,0,4.24399e-314,7.6604e-312
00:04:02:783,,10173.5,-102.919,66664.2,43.8339,-120.649,0,0,0,0,0,0,0,4.24399e-314,7.6604e-312
00:04:03:797,,10070.1,-103.436,66471,43.8341,-120.649,0,0,0,0,0,0,0,4.24399e-314,7.6604e-312
00:04:04:799,,9978.6,-91.5084,12247,43.8343,-120.649,0,0,0,0,0,0,0,4.24399e-314,7.6604e-312
00:04:05:813,,9864.28,-114.324,66066.5,43.8344,-120.649,0,0,0,0,0,0,0,4.24399e-314,7.6604e-312
00:04:06:816,,9766.14,-98.1419,66360.8,43.8345,-120.649,0,0,0,0,0,0,0,4.24399e-314,7.6604e-312
00:04:07:830,,9670.01,-96.1311,65762.3,43.8345,-120.649,0,0,0,0,0,0,0,4.24399e-314,7.6604e-312
00:04:08:832,,9549.63,-120.378,65072,43.8346,-120.649,0,0,0,0,0,0,0,4.24399e-314,7.6604e-312
00:04:09:833,,9442.79,-106.844,64386.7,43.8348,-120.649,0,0,0,0,0,0,0,4.24399e-314,7.6604e-312
00:04:10:847,,9340.51,-102.273,64665.4,43.8349,-120.649,0,0,0,0,0,0,0,4.24399e-314,7.6604e-312
00:04:11:849,,9245.7,-94.8154,65527.6,43.8349,-120.648,0,0,0,0,0,0,0,4.24399e-314,7.6604e-312
00:04:12:863,,9126.54,-119.155,64775.6,43.8349,-120.648,0,0,0,0,0,0,0,4.24399e-314,7.6604e-312
00:04:13:865,,9019.9,-106.64,65423.3,43.835,-120.648,0,0,0,0,0,0,0,4.24399e-314,7.6604e-312
00:04:14:880,,8914.46,-105.445,65388.2,43.8351,-120.648,0,0,0,0,0,0,0,4.24399e-314,7.6604e-312
00:04:15:881,,8816.39,-98.0653,65725.1,43.8352,-120.648,0,0,0,0,0,0,0,4.24399e-314,7.6604e-312
00:04:16:883,,8722.75,-93.6375,65533.9,43.8353,-120.648,0,0,0,0,0,0,0,4.24399e-314,7.6604e-312
00:04:17:884,,8604.77,-117.984,65778.8,43.8353,-120.648,0,0,0,0,0,0,0,4.24399e-314,7.6604e-312
00:04:18:897,,8500.72,-104.046,65410.3,43.8353,-120.648,0,0,0,0,0,0,0,4.24399e-314,7.6604e-312
00:04:19:899,,8403.14,-97.584,65252.5,43.8354,-120.648,0,0,0,0,0,0,0,4.24399e-314,7.6604e-312
00:04:20:913,,8303.42,-99.717,65504.3,43.8355,-120.648,0,0,0,0,0,0,0,4.24399e-314,7.6604e-312
00:04:21:916,,8206.45,-96.968,13147.2,43.8356,-120.648,0,0,0,0,0,0,0,4.24399e-314,7.6604e-312
00:04:22:930,,8099.69,-106.761,12366.4,43.8356,-120.647,0,0,0,0,0,0,0,4.24399e-314,7.6604e-312
00:04:23:932,,7998.53,-101.166,66663.4,43.8355,-120.647,0,0,0,0,0,0,0,4.24399e-314,7.6604e-312
00:04:24:946,,7886.46,-112.068,66620.5,43.8355,-120.647,0,0,0,0,0,0,0,4.24399e-314,7.6604e-312
00:04:25:949,,7799.17,-87.2865,66658.2,43.8356,-120.647,0,0,0,0,0,0,0,4.24399e-314,7.6604e-312
00:04:26:963,,7693.4,-105.778,64817.5,43.8357,-120.647,0,0,0,0,0,0,0,4.24399e-314,7.6604e-312
00:04:27:965,,7581.22,-112.172,65508.8,43.8356,-120.647,0,0,0,0,0,0,0,4.24399e-314,7.6604e-312
00:04:28:979,,7480.93,-100.295,63865.5,43.8356,-120.647,0,0,0,0,0,0,0,4.24399e-314,7.6604e-312
00:04:29:982,,7375.43,-105.498,65653.1,43.8355,-120.647,0,0,0,0,0,0,0,4.24399e-314,7.6604e-312
00:04:30:996,,7277.36,-98.0667,13447.9,43.8356,-120.647,0,0,0,0,0,0,0,4.24399e-314,7.6604e-312
00:04:31:998,,7174.51,-102.857,12290.2,43.8357,-120.647,0,0,0,0,0,0,0,4.24399e-314,7.6604e-312
00:04:33:012,,7074.72,-99.7859,66626.2,43.8357,-120.647,0,0,0,0,0,0,0,4.24399e-314,7.6604e-312
00:04:34:013,,6970.97,-103.754,12900.7,43.8357,-120.647,0,0,0,0,0,0,0,4.24399e-314,7.6604e-312
00:04:35:016,,6873.38,-97.5898,65820.1,43.8356,-120.647,0,0,0,0,0,0,0,4.24399e-314,7.6604e-312
00:04:36:017,,6096.53,-776.843,65401.7,43.8356,-120.647,0,0,0,0,0,0,0,4.24399e-314,7.6604e-312
00:04:37:030,,5996.7,-99.8347,66022.9,43.8357,-120.647,0,0,0,0,0,0,0,4.24399e-314,7.6604e-312
00:04:38:032,,5896.43,-100.274,64707.7,43.8357,-120.647,0,0,0,0,0,0,0,4.24399e-314,7.6604e-312
00:04:39:046,,5800.97,-95.4547,65782.3,43.8357,-120.647,0,0,0,0,0,0,0,4.24399e-314,7.6604e-312
00:04:40:047,,5694.96,-106.016,66499,43.8357,-120.647,0,0,0,0,0,0,0,4.24399e-314,7.6604e-312
00:04:41:048,,5611.67,-83.2901,13646.5,43.8357,-120.647,0,0,0,0,0,0,0,4.24399e-314,7.6604e-312
00:04:42:063,,5520.78,-90.884,12223.9,43.8358,-120.647,0,0,0,0,0,0,0,4.24399e-314,7.6604e-312
00:04:43:065,,5412.73,-108.052,13230.1,43.8358,-120.647,0,0,0,0,0,0,0,4.24399e-314,7.6604e-312
00:04:44:079,,5316.13,-96.6008,66048.7,43.8358,-120.647,0,0,0,0,0,0,0,4.24399e-314,7.6604e-312
00:04:45:082,,5219.08,-97.0453,65535,43.8358,-120.647,0,0,0,0,0,0,0,4.24399e-314,7.6604e-312
00:04:46:096,,5123.8,-95.2812,65024.7,43.8358,-120.647,0,0,0,0,0,0,0,4.24399e-314,7.6604e-312
00:04:47:098,,5403.83,280.032,65549.3,43.8358,-120.647,0,0,0,0,0,0,0,4.24399e-314,7.6604e-312
00:04:48:099,,5298.03,-105.809,66357.1,43.8359,-120.646,0,0,0,0,0,0,0,4.24399e-314,7.6604e-312
00:04:49:112,,5200.67,-97.3585,66144.7,43.8358,-120.646,0,0,0,0,0,0,0,4.24399e-314,7.6604e-312
00:04:50:114,,5110.58,-90.0861,66511,43.8357,-120.646,0,0,0,0,0,0,0,4.24399e-314,7.6604e-312
00:04:51:115,,5010.5,-100.083,65597.1,43.8356,-120.646,0,0,0,0,0,0,0,4.24399e-314,7.6604e-312
00:04:52:130,,4904.89,-105.607,64962.3,43.8356,-120.646,0,0,0,0,0,0,0,4.24399e-314,7.6604e-312
00:04:53:132,,4796.36,-108.531,65245.9,43.8356,-120.646,0,0,0,0,0,0,0,4.24399e-314,7.6604e-312
00:04:54:146,,4700.88,-95.479,64635.1,43.8356,-120.646,0,0,0,0,0,0,0,4.24399e-314,7.6604e-312
00:04:55:148,,4621.23,-79.6499,65628,43.8354,-120.646,0,0,0,0,0,0,0,4.24399e-314,7.6604e-312
00:04:56:163,,4508.61,-112.619,11952.7,43.8354,-120.646,0,0,0,0,0,0,0,4.24399e-314,7.6604e-312
00:04:57:165,,4413.27,-95.3438,66336.1,43.8353,-120.646,0,0,0,0,0,0,0,4.24399e-314,7.6604e-312
00:04:58:179,,4317.13,-96.1354,11960.6,43.8354,-120.646,0,0,0,0,0,0,0,4.24399e-314,7.6604e-312
00:04:59:181,,4210.93,-106.202,65948.4,43.8354,-120.646,0,0,0,0,0,0,0,4.24399e-314,7.6604e-312
00:05:00:195,,4112.2,-98.7348,66233.9,43.8353,-120.646,0,0,0,0,0,0,0,4.24399e-314,7.6604e-312
00:05:01:198,,4013.76,-98.4321,65549.8,43.8352,-120.646,0,0,0,0,0,0,0,4.24399e-314,7.6604e-312
00:05:02:212,,3915.28,-98.4852,65893.1,43.8351,-120.646,0,0,0,0,0,0,0,4.24399e-314,7.6604e-312
00:05:03:214,,3811.8,-103.474,64995.5,43.8352,-120.646,0,0,0,0,0,0,0,4.24399e-314,7.6604e-312
00:05:04:229,,3721.32,-90.487,64573.5,43.8352,-120.646,0,0,0,0,0,0,0,4.24399e-314,7.6604e-312
00:05:05:231,,3626.18,-95.1416,64715.9,43.8351,-120.646,0,0,0,0,0,0,0,4.24399e-314,7.6604e-312
00:05:06:232,,3504.41,-121.764,66060.2,43.835,-120.646,0,0,0,0,0,0,0,4.24399e-314,7.6604e-312
00:05:07:245,,3406.77,-97.6382,11319.2,43.8349,-120.646,0,0,0,0,0,0,0,4.24399e-314,7.6604e-312
00:05:08:248,,3319.15,-87.6225,65864.9,43.8349,-120.646,0,0,0,0,0,0,0,4.24399e-314,7.6604e-312
00:05:09:263,,3226.92,-92.2332,13436.6,43.8349,-120.646,0,0,0,0,0,0,0,4.24399e-314,7.6604e-312
00:05:10:266,,3120.1,-106.814,65795.5,43.8347,-120.645,0,0,0,0,0,0,0,4.24399e-314,7.6604e-312
00:05:11:279,,3009.86,-110.245,65865.7,43.8346,-120.645,0,0,0,0,0,0,0,4.24399e-314,7.6604e-312
00:05:12:282,,2904.44,-105.415,65128.1,43.8345,-120.646,0,0,0,0,0,0,0,4.24399e-314,7.6604e-312
00:05:13:296,,2801.08,-103.364,65593.9,43.8345,-120.646,0,0,0,0,0,0,0,4.24399e-314,7.6604e-312
00:05:14:298,,2709.29,-91.7928,65615.2,43.8344,-120.646,0,0,0,0,0,0,0,4.24399e-314,7.6604e-312
00:05:15:312,,2620.13,-89.1551,65907,43.8343,-120.645,0,0,0,0,0,0,0,4.24399e-314,7.6604e-312
00:05:16:314,,2503.44,-116.688,65917.8,43.8342,-120.645,0,0,0,0,0,0,0,4.24399e-314,7.6604e-312
00:05:17:328,,2408.77,-94.6701,66291,43.8341,-120.645,0,0,0,0,0,0,0,4.24399e-314,7.6604e-312
00:05:18:331,,2303.94,-104.829,66585.6,43.8341,-120.646,0,0,0,0,0,0,0,4.24399e-314,7.6604e-312
00:05:19:345,,2224.29,-79.6597,66729.7,43.8341,-120.645,0,0,0,0,0,0,0,4.24399e-314,7.6604e-312
00:05:20:348,,2116.03,-108.253,66084.6,43.834,-120.645,0,0,0,0,0,0,0,4.24399e-314,7.6604e-312
00:05:21:362,,2007.47,-108.561,65742,43.8339,-120.645,0,0,0,0,0,0,0,4.24399e-314,7.6604e-312
00:05:22:364,,1922.21,-85.259,66084.5,43.8338,-120.645,0,0,0,0,0,0,0,4.24399e-314,7.6604e-312
00:05:23:378,,1819.27,-102.946,13170.3,43.8337,-120.645,0,0,0,0,0,0,0,4.24399e-314,7.6604e-312
00:05:24:381,,1743.1,-76.17,66742.8,43.8337,-120.645,0,0,0,0,0,0,0,4.24399e-314,7.6604e-312
00:05:25:395,,1641.37,-101.724,66159.7,43.8337,-120.645,0,0,0,0,0,0,0,4.24399e-314,7.6604e-312
00:05:26:396,,1543.91,-97.4635,14140,43.8335,-120.645,0,0,0,0,0,0,0,4.24399e-314,7.6604e-312
00:05:27:398,,1450.34,-93.5679,12435.3,43.8334,-120.645,0,0,0,0,0,0,0,4.24399e-314,7.6604e-312
00:05:28:412,,1372.73,-77.6059,14847.5,43.8334,-120.645,0,0,0,0,0,0,0,4.24399e-314,7.6604e-312
00:05:29:415,,1279.65,-93.0806,64888.5,43.8333,-120.645,0,0,0,0,0,0,0,4.24399e-314,7.6604e-312
00:05:30:429,,1181.31,-98.3451,65913.8,43.8332,-120.645,0,0,0,0,0,0,0,4.24399e-314,7.6604e-312
00:05:31:431,,1093.63,-87.6754,65984.3,43.8331,-120.645,0,0,0,0,0,0,0,4.24399e-314,7.6604e-312
00:05:32:445,,1001.02,-92.6162,66217.5,43.8328,-120.645,0,0,0,0,0,0,0,4.24399e-314,7.6604e-312
00:05:33:447,,908.339,-92.6782,66409.7,43.8328,-120.645,0,0,0,0,0,0,0,4.24399e-314,7.6604e-312
00:05:34:462,,779.926,-128.413,66693.6,43.8327,-120.645,0,0,0,0,0,0,0,4.24399e-314,7.6604e-312
00:05:35:464,,741.404,-38.5224,64297.2,43.8326,-120.645,0,0,0,0,0,0,0,4.24399e-314,7.6604e-312
00:05:36:465,,621.951,-119.453,65055.8,43.8325,-120.645,0,0,0,0,0,0,0,4.24399e-314,7.6604e-312
00:05:37:478,,549.146,-72.8042,64678.2,43.8324,-120.645,0,0,0,0,0,0,0,4.24399e-314,7.6604e-312
00:05:38:481,,456.14,-93.0061,65837.6,43.8323,-120.645,0,0,0,0,0,0,0,4.24399e-314,7.6604e-312
00:05:39:495,,367.519,-88.621,66442.4,43.8322,-120.644,0,0,0,0,0,0,0,4.24399e-314,7.6604e-312
00:05:40:497,,260.792,-106.727,64861.3,43.832,-120.644,0,0,0,0,0,0,0,4.24399e-314,7.6604e-312
00:05:41:511,,165.756,-95.0354,64993.1,43.832,-120.644,0,0,0,0,0,0,0,4.24399e-314,7.6604e-312
00:05:42:513,,72.5656,-93.1908,66187.4,43.8319,-120.644,0,0,0,0,0,0,0,4.24399e-314,7.6604e-312
00:05:43:515,,-42.9282,-115.494,66395.8,43.8319,-120.644,0,0,0,0,0,0,0,4.24399e-314,7.6604e-312
00:05:44:529,,-135.221,-92.293,66275.7,43.8317,-120.644,0,0,0,0,0,0,0,4.24399e-314,7.6604e-312
00:05:45:531,,-228.815,-93.5941,63714.9,43.8316,-120.644,0,0,0,0,0,0,0,4.24399e-314,7.6604e-312
00:05:46:545,,-350.094,-121.278,66311.4,43.8315,-120.644,0,0,0,0,0,0,0,4.24399e-314,7.6604e-312
00:05:47:546,,-454.534,-104.441,65888.7,43.8315,-120.644,0,0,0,0,0,0,0,4.24399e-314,7.6604e-312
00:05:48:547,,140727,141182,0,GPS ERROR,GPS ERROR,0,0,0,0,0,0,0,4.24399e-314,7.6604e-312
00:05:49:562,Apogee,140727,0,0,GPS ERROR,GPS ERROR,0,0,0,0,0,0,0,4.24399e-314,7.6604e-312
00:05:50:564,,140727,0,0,GPS ERROR,GPS ERROR,0,0,0,0,0,0,0,4.24399e-314,7.6604e-312
00:05:51:578,,nan,nan,nan,GPS ERROR,GPS ERROR,0,0,0,0,0,0,0,4.24399e-314,7.6604e-312
00:05:52:580,,nan,nan,nan,GPS ERROR,GPS ERROR,0,0,0,0,0,0,0,4.24399e-314,7.6604e-312
00:05:53:595,,nan,nan,nan,GPS ERROR,GPS ERROR,0,0,0,0,0,0,0,4.24399e-314,7.6604e-312
00:05:54:597,,nan,nan,nan,GPS ERROR,GPS ERROR,0,0,0,0,0,0,0,4.24399e-314,7.6604e-312
00:05:55:611,,nan,nan,nan,GPS ERROR,GPS ERROR,0,0,0,0,0,0,0,4.24399e-314,7.6604e-312
00:05:56:613,,nan,nan,nan,GPS ERROR,GPS ERROR,0,0,0,0,0,0,0,4.24399e-314,7.6604e-312
00:05:57:614,,nan,nan,nan,GPS ERROR,GPS ERROR,0,0,0,0,0,0,0,4.24399e-314,7.6604e-312
00:05:58:628,,nan,nan,nan,GPS ERROR,GPS ERROR,0,0,0,0,0,0,0,4.24399e-314,7.6604e-312
00:05:59:631,,nan,nan,nan,GPS ERROR,GPS ERROR,0,0,0,0,0,0,0,4.24399e-314,7.6604e-312
00:06:00:644,,nan,nan,nan,GPS ERROR,GPS ERROR,0,0,0,0,0,0,0,4.24399e-314,7.6604e-312
00:06:01:645,,nan,nan,nan,GPS ERROR,GPS ERROR,0,0,0,0,0,0,0,4.24399e-314,7.6604e-312
00:06:02:648,,nan,nan,nan,GPS ERROR,GPS ERROR,0,0,0,0,0,0,0,4.24399e-314,7.6604e-312
